State Abbreviation,Larceny-theft,Property crime,State,City,Burglary,Population 2000,Aggravated assault,Murder and non-negligent manslaughter,Arson,Forcible rape,Violent crime,Motor vehicle theft,County,latitude,longitude
TX,59.0,83.0,TX,Progreso,21.0,4851.0,12.0,0.0,0,0.0,14.0,3.0,Hidalgo County,26.0922946929932,-97.9572219848633
TX,33.0,49.0,TX,Laguna Vista,14.0,1658.0,2.0,0.0,6,0.0,2.0,2.0,Cameron County,26.1008415222168,-97.2935256958008
TX,887.0,1098.0,TX,Alamo,113.0,14760.0,50.0,0.0,6,0.0,67.0,98.0,Hidalgo County,26.1836833953857,-98.1230621337891
TX,1204.0,1602.0,TX,San Juan,276.0,26229.0,89.0,1.0,0,0.0,104.0,122.0,Hidalgo County,26.1892433166504,-98.1552886962891
TX,66.0,98.0,TX,Primera,28.0,2723.0,1.0,0.0,0,0.0,1.0,4.0,Cameron County,26.2259120941162,-97.758056640625
TX,39.0,63.0,TX,La Joya,23.0,3303.0,4.0,0.0,0,0.0,5.0,1.0,Hidalgo County,26.2470188140869,-98.4814071655273
TX,42.0,64.0,TX,Santa Rosa,19.0,2833.0,13.0,0.0,3,0.0,15.0,3.0,Cameron County,26.2567405700684,-97.8249969482422
TX,229.0,355.0,TX,Alton,84.0,4384.0,4.0,0.0,0,0.0,7.0,42.0,Hidalgo County,26.2872886657715,-98.313346862793
TX,327.0,477.0,TX,Elsa,108.0,5549.0,93.0,0.0,0,0.0,100.0,42.0,Hidalgo County,26.2934093475342,-97.9930648803711
TX,52.0,106.0,TX,Edcouch,43.0,3342.0,7.0,0.0,3,0.0,11.0,11.0,Hidalgo County,26.2939586639404,-97.960563659668
TX,199.0,214.0,TX,Bishop,14.0,3305.0,7.0,0.0,0,0.0,7.0,1.0,Nueces County,27.5861415863037,-97.7991638183594
TX,91.0,92.0,TX,Driscoll,1.0,825.0,1.0,0.0,0,0.0,1.0,0.0,Nueces County,27.6744766235352,-97.7486038208008
TX,230.0,289.0,TX,Port Aransas,43.0,3370.0,21.0,0.0,1,0.0,25.0,16.0,Nueces County,27.8339157104492,-97.0610961914062
TX,43.0,56.0,TX,Freer,12.0,3241.0,7.0,0.0,0,0.0,7.0,1.0,Duval County,27.8827953338623,-98.617790222168
TX,220.0,232.0,TX,Gregory,11.0,2318.0,1.0,0.0,5,0.0,1.0,1.0,San Patricio County,27.9222393035889,-97.2899856567383
TX,2.0,17.0,TX,Orange Grove,13.0,1288.0,5.0,0.0,0,0.0,6.0,2.0,Jim Wells County,27.9566860198975,-97.9369430541992
TX,127.0,148.0,TX,Taft,20.0,3396.0,0.0,0.0,0,0.0,0.0,1.0,San Patricio County,27.9789047241211,-97.3985977172852
TX,120.0,169.0,TX,Mathis,47.0,5034.0,9.0,0.0,3,0.0,10.0,2.0,San Patricio County,28.0944595336914,-97.8280563354492
TX,26.0,43.0,TX,Refugio,15.0,2941.0,1.0,0.0,0,0.0,1.0,2.0,Refugio County,28.3052845001221,-97.2752685546875
TX,292.0,454.0,TX,Beeville,154.0,13129.0,33.0,0.0,2,0.0,35.0,8.0,Bee County,28.4008369445801,-97.7483367919922
TX,8.0,16.0,TX,Seadrift,7.0,1352.0,2.0,0.0,0,0.0,2.0,1.0,Calhoun County,28.4152812957764,-96.7135925292969
TX,38.0,57.0,TX,Three Rivers,17.0,1878.0,2.0,1.0,0,0.0,3.0,2.0,Live Oak County,28.4602699279785,-98.182502746582
TX,40.0,80.0,TX,Dilley,34.0,3674.0,16.0,0.0,1,0.0,17.0,6.0,Frio County,28.6674766540527,-99.1705932617188
TX,143.0,200.0,TX,Crystal City,52.0,7190.0,4.0,0.0,2,0.0,6.0,5.0,Zavala County,28.6774768829346,-99.8281173706055
TX,867.0,1064.0,TX,Eagle Pass,151.0,22413.0,85.0,2.0,0,0.0,102.0,46.0,Maverick County,28.7091445922852,-100.499519348145
TX,0.0,2.0,TX,Point Comfort,2.0,781.0,1.0,0.0,0,0.0,1.0,0.0,Calhoun County,28.6797122955322,-96.5602493286133
TX,71.0,127.0,TX,Palacios,51.0,5153.0,33.0,0.0,0,0.0,35.0,5.0,Matagorda County,28.7080497741699,-96.2174606323242
TX,30.0,61.0,TX,Kenedy,31.0,3487.0,4.0,0.0,0,0.0,4.0,0.0,Karnes County,28.8191471099854,-97.8486099243164
TX,164.0,258.0,TX,Pearsall,88.0,7157.0,29.0,2.0,0,0.0,32.0,6.0,Frio County,28.8921890258789,-99.0950317382812
TX,22.0,49.0,TX,Jourdanton,24.0,3732.0,7.0,0.0,0,0.0,7.0,3.0,Atascosa County,28.9180316925049,-98.5464096069336
TX,12.0,31.0,TX,Surfside Beach,15.0,763.0,0.0,0.0,0,0.0,0.0,4.0,Brazoria County,28.9448947906494,-95.2896575927734
TX,9.0,12.0,TX,Jones Creek,2.0,2130.0,1.0,0.0,0,0.0,1.0,1.0,Brazoria County,28.968578338623,-95.4552230834961
TX,11.0,15.0,TX,Ganado,4.0,1915.0,0.0,0.0,0,0.0,0.0,0.0,Jackson County,29.0405387878418,-96.5135803222656
TX,28.0,58.0,TX,Oyster Creek,26.0,1192.0,16.0,0.0,0,0.0,16.0,4.0,Brazoria County,29.0030269622803,-95.3318862915039
TX,67.0,82.0,TX,Richwood,12.0,3012.0,2.0,1.0,0,0.0,3.0,3.0,Brazoria County,29.0560760498047,-95.4099426269531
TX,27.0,36.0,TX,Somerset,6.0,1550.0,1.0,0.0,0,0.0,1.0,3.0,Bexar County,29.2263488769531,-98.6577987670898
TX,78.0,99.0,TX,Lytle,17.0,2383.0,1.0,0.0,3,0.0,3.0,4.0,Atascosa County,29.2332992553711,-98.7964172363281
TX,17.0,29.0,TX,Jamaica Beach,11.0,1075.0,2.0,0.0,0,0.0,2.0,1.0,Galveston County,29.1896800994873,-94.9796371459961
TX,43.0,51.0,TX,Sabinal,8.0,1586.0,7.0,0.0,0,0.0,7.0,0.0,Uvalde County,29.317455291748,-99.466438293457
TX,112.0,163.0,TX,Yoakum,41.0,5731.0,2.0,0.0,0,0.0,2.0,10.0,DeWitt County,29.2877464294434,-97.1519393920898
TX,91.0,123.0,TX,Meadows Place,21.0,-99999.0,0.0,0.0,2,0.0,3.0,11.0,Fort Bend County,29.6513423919678,-95.588005065918
TX,12.0,18.0,TX,Weimar,5.0,1981.0,1.0,0.0,0,0.0,1.0,1.0,Colorado County,29.7030124664307,-96.7805328369141
TX,66.0,78.0,TX,Bulverde,11.0,3761.0,4.0,0.0,0,0.0,4.0,1.0,Comal County,29.7438316345215,-98.4530792236328
TX,12.0,13.0,TX,Southside Place,0.0,1546.0,0.0,0.0,0,0.0,3.0,1.0,Harris County,29.7060604095459,-95.4368896484375
TX,204.0,275.0,TX,West University Pla,65.0,14211.0,0.0,0.0,0,0.0,5.0,6.0,Harris County,29.7180080413818,-95.4338302612305
TX,0.0,2.0,TX,Martindale,1.0,953.0,0.0,0.0,0,0.0,0.0,1.0,Caldwell County,29.8455009460449,-97.8408432006836
TX,89.0,102.0,TX,Spring Valley,9.0,3611.0,1.0,0.0,0,0.0,1.0,4.0,Harris County,29.7896671295166,-95.503547668457
TX,171.0,282.0,TX,Jersey Village,71.0,6880.0,13.0,0.0,0,0.0,24.0,40.0,Harris County,29.8877258300781,-95.5630035400391
TX,113.0,134.0,TX,Kyle,21.0,5314.0,4.0,0.0,1,0.0,4.0,0.0,Hays County,29.9891052246094,-97.8772201538086
TX,47.0,63.0,TX,Ingram,16.0,1740.0,1.0,0.0,0,0.0,2.0,0.0,Kerr County,30.077428817749,-99.2403182983398
TX,330.0,500.0,TX,Groves,135.0,15733.0,17.0,1.0,0,0.0,38.0,35.0,Jefferson County,29.9482727050781,-93.917106628418
TX,80.0,121.0,TX,Waller,32.0,2092.0,11.0,1.0,2,0.0,20.0,9.0,Waller County,30.0566101074219,-95.9268951416016
TX,148.0,221.0,TX,Liberty,49.0,8033.0,3.0,0.0,1,0.0,5.0,24.0,Liberty County,30.0579948425293,-94.7954788208008
TX,149.0,213.0,TX,Bridge City,43.0,8651.0,16.0,0.0,2,0.0,16.0,21.0,Orange County,30.0207710266113,-93.8457260131836
TX,142.0,145.0,TX,Sunset Valley,2.0,365.0,0.0,0.0,0,0.0,1.0,1.0,Travis County,30.2257690429688,-97.8036117553711
TX,96.0,126.0,TX,Oak Ridge North,17.0,2991.0,4.0,0.0,3,0.0,5.0,13.0,Montgomery County,30.1602153778076,-95.4443817138672
TX,190.0,210.0,TX,Fredericksburg,18.0,8911.0,9.0,0.0,0,0.0,9.0,2.0,Gillespie County,30.2751998901367,-98.8719940185547
TX,71.0,101.0,TX,Pinehurst,22.0,-99999.0,18.0,0.0,0,0.0,21.0,8.0,Montgomery County,30.1890678405762,-95.7053451538086
TX,231.0,245.0,TX,Shenandoah,8.0,1503.0,0.0,0.0,,0.0,4.0,6.0,Montgomery County,30.1802158355713,-95.4557723999023
TX,35.0,41.0,TX,Johnson City,5.0,1191.0,1.0,0.0,0,0.0,1.0,1.0,Blanco County,30.2768707275391,-98.4119644165039
TX,8.0,18.0,TX,Roman Forest,6.0,1279.0,3.0,0.0,0,0.0,3.0,4.0,Montgomery County,30.179105758667,-95.1624298095703
TX,17.0,31.0,TX,Rollingwood,10.0,1403.0,0.0,0.0,0,0.0,0.0,4.0,Travis County,30.2768783569336,-97.7911148071289
TX,71.0,101.0,TX,Pinehurst,22.0,2274.0,18.0,0.0,0,0.0,21.0,8.0,Orange County,30.1071491241455,-93.7746047973633
TX,53.0,75.0,TX,West Lake Hills,19.0,3116.0,4.0,0.0,0,0.0,4.0,3.0,Travis County,30.2979850769043,-97.8019485473633
TX,115.0,143.0,TX,Manor,18.0,1204.0,12.0,0.0,0,0.0,14.0,10.0,Travis County,30.3407688140869,-97.5569534301758
TX,21.0,39.0,TX,Somerville,13.0,1704.0,3.0,0.0,0,0.0,5.0,5.0,Burleson County,30.346040725708,-96.5283050537109
TX,544.0,730.0,TX,The Colony,143.0,26531.0,21.0,0.0,11,0.0,33.0,43.0,Denton County,33.0937004089355,-96.8894653320312
TX,45.0,59.0,TX,Lexington,14.0,1178.0,6.0,0.0,1,0.0,6.0,0.0,Lee County,30.4190979003906,-97.0116500854492
TX,68.0,101.0,TX,Lago Vista,27.0,4507.0,3.0,0.0,1,0.0,5.0,6.0,Travis County,30.4601974487305,-97.9883499145508
TX,29.0,52.0,TX,Jonestown,23.0,1681.0,5.0,0.0,0,0.0,5.0,0.0,Travis County,30.495475769043,-97.9233474731445
TX,92.0,131.0,TX,Silsbee,34.0,6393.0,9.0,0.0,0,0.0,12.0,5.0,Hardin County,30.3490982055664,-94.1779632568359
TX,38.0,49.0,TX,Sonora,10.0,2924.0,11.0,0.0,1,0.0,11.0,1.0,Sutton County,30.5668506622314,-100.643432617188
TX,59.0,78.0,TX,Hutto,17.0,1250.0,6.0,0.0,0,0.0,6.0,2.0,Williamson County,30.5426998138428,-97.5466690063477
TX,22.0,29.0,TX,Caldwell,3.0,3449.0,5.0,0.0,0,0.0,5.0,4.0,Burleson County,30.5313148498535,-96.6930313110352
TX,242.0,305.0,TX,Leander,54.0,7596.0,16.0,0.0,2,0.0,18.0,9.0,Williamson County,30.5788040161133,-97.8530731201172
TX,14.0,18.0,TX,Thrall,3.0,710.0,1.0,0.0,0,0.0,1.0,1.0,Williamson County,30.5904808044434,-97.2969436645508
TX,6.0,12.0,TX,Thorndale,5.0,1278.0,2.0,0.0,0,0.0,3.0,1.0,Milam County,30.6138076782227,-97.2055435180664
TX,10.0,18.0,TX,Granger,8.0,1299.0,8.0,0.0,0,0.0,8.0,0.0,Williamson County,30.7176933288574,-97.4427795410156
TX,35.0,49.0,TX,Kirbyville,7.0,2085.0,8.0,0.0,1,0.0,8.0,7.0,Jasper County,30.6604843139648,-93.8926849365234
TX,20.0,28.0,TX,Florence,8.0,1054.0,4.0,0.0,1,0.0,4.0,0.0,Williamson County,30.8412952423096,-97.7936172485352
TX,10.0,15.0,TX,Woodville,5.0,2415.0,4.0,0.0,0,0.0,5.0,0.0,Tyler County,30.7751998901367,-94.4154815673828
TX,103.0,136.0,TX,Pecos,28.0,9501.0,28.0,0.0,0,0.0,31.0,5.0,Reeves County,31.4229145050049,-103.493232727051
TX,23.0,30.0,TX,Hemphill,7.0,1106.0,1.0,0.0,0,0.0,1.0,0.0,Sabine County,31.3407459259033,-93.8468551635742
TX,66.0,98.0,TX,Beverly Hills,22.0,2113.0,11.0,0.0,0,0.0,11.0,10.0,McLennan County,31.521556854248,-97.1538925170898
TX,34.0,64.0,TX,Groesbeck,26.0,4291.0,6.0,0.0,0,0.0,6.0,4.0,Limestone County,31.524341583252,-96.5338668823242
TX,20.0,39.0,TX,Grapeland,13.0,1451.0,3.0,0.0,0,0.0,4.0,6.0,Houston County,31.4918479919434,-95.4785614013672
TX,0.0,7.0,TX,Wells,6.0,769.0,5.0,0.0,3,0.0,5.0,1.0,Cherokee County,31.4885101318359,-94.9399337768555
TX,103.0,153.0,TX,Monahans,48.0,6821.0,14.0,2.0,0,0.0,16.0,2.0,Ward County,31.5943012237549,-102.892654418945
TX,11.0,23.0,TX,Teague,5.0,4557.0,5.0,0.0,0,0.0,8.0,7.0,Freestone County,31.6271095275879,-96.2838592529297
TX,15.0,25.0,TX,Bangs,10.0,1620.0,3.0,0.0,0,0.0,3.0,0.0,Brown County,31.7170906066895,-99.1325454711914
TX,73.0,96.0,TX,Ballinger,20.0,4243.0,2.0,0.0,0,0.0,2.0,3.0,Runnels County,31.7382106781006,-99.9473037719727
TX,3.0,3.0,TX,Santa Anna,0.0,1081.0,1.0,0.0,0,0.0,2.0,0.0,Coleman County,31.7420883178711,-99.3217239379883
TX,59.0,86.0,TX,Early,20.0,2588.0,1.0,0.0,0,0.0,1.0,7.0,Brown County,31.7420921325684,-98.9456100463867
TX,17.0,55.0,TX,Alto,35.0,1190.0,0.0,0.0,0,0.0,2.0,3.0,Cherokee County,31.6504573822021,-95.0727233886719
TX,0.0,0.0,TX,Clint,0.0,980.0,0.0,0.0,0,0.0,0.0,0.0,El Paso County,31.5923347473145,-106.224143981934
TX,36.0,47.0,TX,Fairfield,6.0,3094.0,23.0,0.0,0,0.0,25.0,5.0,Freestone County,31.7246074676514,-96.1652526855469
TX,6.0,6.0,TX,Wink,0.0,919.0,0.0,0.0,0,0.0,0.0,0.0,Winkler County,31.7512378692627,-103.159881591797
TX,34.0,59.0,TX,Clifton,21.0,3542.0,9.0,0.0,0,0.0,9.0,4.0,Bosque County,31.7823791503906,-97.5766906738281
TX,99.0,209.0,TX,Coleman,94.0,5127.0,2.0,0.0,2,0.0,2.0,16.0,Coleman County,31.8273658752441,-99.4264526367188
TX,25.0,33.0,TX,West,5.0,2692.0,6.0,0.0,1,0.0,6.0,3.0,McLennan County,31.8023796081543,-97.0916748046875
TX,6.0,10.0,TX,Wortham,4.0,1082.0,2.0,0.0,0,0.0,2.0,0.0,Freestone County,31.7879447937012,-96.4624786376953
TX,521.0,726.0,TX,Palestine,159.0,17598.0,101.0,1.0,13,0.0,115.0,46.0,Anderson County,31.7621116638184,-95.6307983398438
TX,12.0,19.0,TX,Hubbard,5.0,1586.0,1.0,0.0,0,0.0,1.0,2.0,Hill County,31.8484897613525,-96.7972106933594
TX,34.0,59.0,TX,Rusk,22.0,5085.0,14.0,0.0,0,0.0,15.0,3.0,Cherokee County,31.7960033416748,-95.1502227783203
TX,3.0,4.0,TX,Meridian,1.0,1491.0,1.0,0.0,0,0.0,1.0,0.0,Bosque County,31.9232120513916,-97.6566848754883
TX,15.0,30.0,TX,Winters,10.0,2880.0,2.0,0.0,1,0.0,3.0,5.0,Runnels County,31.9565353393555,-99.9623031616211
TX,60.0,72.0,TX,Whitney,12.0,1833.0,2.0,0.0,1,0.0,2.0,0.0,Hill County,31.9518260955811,-97.321403503418
TX,0.0,6.0,TX,Rising Star,6.0,835.0,2.0,0.0,0,0.0,2.0,0.0,Eastland County,32.0959701538086,-98.9636688232422
TX,24.0,29.0,TX,De Leon,4.0,2433.0,3.0,0.0,1,0.0,3.0,1.0,Comanche County,32.110969543457,-98.535888671875
TX,26.0,37.0,TX,Frankston,10.0,1209.0,4.0,0.0,0,0.0,4.0,1.0,Anderson County,32.052661895752,-95.50634765625
TX,3.0,5.0,TX,Milford,2.0,685.0,4.0,0.0,0,0.0,4.0,0.0,Ellis County,32.1245918273926,-96.9452743530273
TX,19.0,29.0,TX,Itasca,8.0,1503.0,1.0,1.0,0,0.0,3.0,2.0,Hill County,32.1595878601074,-97.1500015258789
TX,4.0,5.0,TX,Coffee City,1.0,193.0,1.0,0.0,0,0.0,1.0,0.0,Henderson County,32.1159858703613,-95.4994049072266
TX,96.0,112.0,TX,Anthony,10.0,3850.0,5.0,0.0,0,0.0,11.0,6.0,El Paso County,31.9992713928223,-106.60555267334
TX,16.0,29.0,TX,Gorman,13.0,1236.0,1.0,0.0,0,0.0,1.0,0.0,Eastland County,32.2137489318848,-98.6706161499023
TX,8.0,13.0,TX,Danbury,5.0,1611.0,1.0,0.0,0,0.0,1.0,0.0,Brazoria County,29.2283000946045,-95.3449325561523
TX,78.0,89.0,TX,Castroville,10.0,2664.0,7.0,0.0,0,0.0,7.0,1.0,Medina County,29.3557949066162,-98.8786315917969
TX,742.0,1042.0,TX,Del Rio,199.0,33867.0,29.0,0.0,9,0.0,40.0,101.0,Val Verde County,29.3627281188965,-100.896766662598
TX,36.0,44.0,TX,La Vernia,8.0,931.0,4.0,0.0,0,0.0,4.0,0.0,Wilson County,29.3563461303711,-98.1155624389648
TX,3.0,4.0,TX,Bayou Vista,1.0,1644.0,0.0,0.0,0,0.0,0.0,0.0,Galveston County,29.3263473510742,-94.9385299682617
TX,119.0,180.0,TX,Kirby,52.0,8673.0,17.0,0.0,0,0.0,23.0,9.0,Bexar County,29.4632930755615,-98.3855667114258
TX,59.0,114.0,TX,Terrell Hills,50.0,5019.0,1.0,0.0,0,0.0,2.0,5.0,Bexar County,29.4749507904053,-98.4508590698242
TX,4.0,11.0,TX,Needville,3.0,2609.0,5.0,1.0,0,0.0,6.0,4.0,Fort Bend County,29.3994140625,-95.8377304077148
TX,208.0,258.0,TX,Alamo Heights,42.0,7319.0,4.0,0.0,0,0.0,13.0,8.0,Bexar County,29.4849510192871,-98.4658584594727
TX,158.0,264.0,TX,Converse,98.0,11508.0,5.0,0.0,0,0.0,7.0,8.0,Bexar County,29.5180110931396,-98.3161163330078
TX,340.0,395.0,TX,Castle Hills,46.0,4202.0,4.0,0.0,0,0.0,8.0,9.0,Bexar County,29.5232887268066,-98.5164108276367
TX,73.0,105.0,TX,Manvel,26.0,3046.0,18.0,0.0,0,0.0,20.0,6.0,Brazoria County,29.4627361297607,-95.3579940795898
TX,65.0,96.0,TX,Helotes,29.0,4285.0,4.0,0.0,0,0.0,5.0,2.0,Bexar County,29.5780067443848,-98.6897354125977
TX,19.0,25.0,TX,Marion,5.0,1099.0,1.0,0.0,0,0.0,1.0,1.0,Guadalupe County,29.5713386535645,-98.1402893066406
TX,34.0,46.0,TX,Hill Country Villag,9.0,1028.0,1.0,0.0,1,0.0,1.0,3.0,Bexar County,29.582447052002,-98.4908599853516
TX,62.0,90.0,TX,Shavano Park,28.0,1754.0,2.0,0.0,0,0.0,2.0,0.0,Bexar County,29.5849475860596,-98.5525207519531
TX,9.0,18.0,TX,Arcola,7.0,1048.0,9.0,0.0,0,0.0,10.0,2.0,Fort Bend County,29.4960670471191,-95.4657821655273
TX,57.0,79.0,TX,Hollywood Park,15.0,2983.0,2.0,0.0,0,0.0,3.0,7.0,Bexar County,29.6005077362061,-98.4872360229492
TX,14.0,29.0,TX,Presidio,9.0,4167.0,4.0,0.0,1,0.0,4.0,6.0,Presidio County,29.5607433319092,-104.37215423584
TX,10.0,25.0,TX,Brookside Village,13.0,1960.0,9.0,0.0,0,0.0,9.0,2.0,Brazoria County,29.5869026184082,-95.3252105712891
TX,54.0,71.0,TX,Wallis,16.0,1172.0,1.0,0.0,0,0.0,1.0,1.0,Austin County,29.63134765625,-96.0652389526367
TX,36.0,53.0,TX,Italy,15.0,1993.0,18.0,0.0,1,0.0,18.0,2.0,Ellis County,32.1840400695801,-96.8847122192383
TX,68.0,78.0,TX,Bullard,7.0,1150.0,2.0,0.0,0,0.0,2.0,3.0,Smith County,32.1398773193359,-95.3202285766602
TX,142.0,198.0,TX,Carthage,32.0,6664.0,36.0,0.0,0,0.0,38.0,24.0,Panola County,32.1573791503906,-94.3374176025391
TX,30.0,61.0,TX,Tool,25.0,2275.0,7.0,0.0,0,0.0,7.0,6.0,Henderson County,32.2679290771484,-96.1702499389648
TX,7.0,13.0,TX,Arp,5.0,901.0,1.0,0.0,1,0.0,1.0,1.0,Smith County,32.2254371643066,-95.0577239990234
TX,4.0,10.0,TX,Baird,6.0,1623.0,1.0,0.0,0,0.0,1.0,0.0,Callahan County,32.3940200805664,-99.3942413330078
TX,27.0,33.0,TX,Overton,5.0,2350.0,5.0,0.0,0,0.0,5.0,1.0,Rusk County,32.2745933532715,-94.9785537719727
TX,113.0,134.0,TX,Eastland,15.0,3769.0,2.0,0.0,1,0.0,4.0,6.0,Eastland County,32.4015197753906,-98.8175659179688
TX,3.0,3.0,TX,Tolar,0.0,504.0,0.0,0.0,0,0.0,0.0,0.0,Hood County,32.3890266418457,-97.9205932617188
TX,84.0,128.0,TX,Keene,26.0,5003.0,1.0,0.0,0,0.0,1.0,18.0,Johnson County,32.3968124389648,-97.3238983154297
TX,3.0,4.0,TX,Roscoe,1.0,1378.0,0.0,0.0,1,0.0,0.0,0.0,Nolan County,32.4459495544434,-100.538711547852
TX,396.0,416.0,TX,Granbury,9.0,5718.0,11.0,0.0,0,0.0,15.0,11.0,Hood County,32.4420776367188,-97.7941970825195
TX,30.0,47.0,TX,Merkel,17.0,2637.0,8.0,0.0,0,0.0,8.0,0.0,Taylor County,32.4706802368164,-100.012870788574
TX,27.0,63.0,TX,Ranger,34.0,2584.0,3.0,0.0,0,0.0,3.0,2.0,Eastland County,32.4698486328125,-98.6789474487305
TX,3.0,7.0,TX,Godley,3.0,879.0,4.0,0.0,1,0.0,5.0,1.0,Johnson County,32.449031829834,-97.5266876220703
TX,49.0,62.0,TX,Kemp,11.0,1133.0,5.0,0.0,0,0.0,6.0,2.0,Kaufman County,32.4426422119141,-96.2299728393555
TX,136.0,219.0,TX,Red Oak,65.0,4301.0,11.0,0.0,0,0.0,11.0,18.0,Ellis County,32.5176391601562,-96.804443359375
TX,0.0,9.0,TX,Hawley,9.0,646.0,0.0,0.0,0,0.0,0.0,0.0,Jones County,32.6120567321777,-99.8142547607422
TX,44.0,72.0,TX,Van,24.0,2362.0,0.0,0.0,1,0.0,2.0,4.0,Van Zandt County,32.5248565673828,-95.6371765136719
TX,147.0,157.0,TX,Lindale,8.0,2954.0,2.0,0.0,0,0.0,3.0,2.0,Smith County,32.5157012939453,-95.4094085693359
TX,70.0,99.0,TX,Canton,25.0,3292.0,0.0,0.0,0,0.0,0.0,4.0,Van Zandt County,32.556526184082,-95.8633041381836
TX,66.0,129.0,TX,Wilmer,46.0,3393.0,11.0,0.0,0,0.0,13.0,17.0,Dallas County,32.5890235900879,-96.6852722167969
TX,27.0,44.0,TX,Hallsville,11.0,2772.0,1.0,0.0,0,0.0,1.0,6.0,Harrison County,32.5043182373047,-94.5740966796875
TX,205.0,288.0,TX,Gladewater,57.0,6078.0,11.0,0.0,0,0.0,14.0,26.0,Gregg County,32.5365333557129,-94.9427108764648
TX,7.0,11.0,TX,Panhandle,4.0,2589.0,3.0,0.0,0,0.0,3.0,0.0,Carson County,35.3456077575684,-101.380439758301
TX,19.0,26.0,TX,Salado,4.0,-99999.0,0.0,0.0,0,0.0,1.0,3.0,Bell County,30.9476528167725,-97.5389022827148
TX,22.0,40.0,TX,Calvert,17.0,1426.0,7.0,0.0,0,0.0,7.0,1.0,Robertson County,30.9779663085938,-96.6738586425781
TX,119.0,176.0,TX,Madisonville,41.0,4159.0,13.0,0.0,1,0.0,21.0,16.0,Madison County,30.9499092102051,-95.91162109375
TX,61.0,82.0,TX,Trinity,17.0,2721.0,14.0,1.0,1,0.0,18.0,4.0,Trinity County,30.9451866149902,-95.3755035400391
TX,363.0,531.0,TX,Belton,150.0,14623.0,26.0,0.0,2,0.0,33.0,18.0,Bell County,31.0560092926025,-97.4644622802734
TX,13.0,25.0,TX,Rosebud,12.0,1493.0,0.0,0.0,0,0.0,0.0,0.0,Falls County,31.0729637145996,-96.9785995483398
TX,10.0,22.0,TX,Corrigan,12.0,1721.0,2.0,0.0,4,0.0,4.0,0.0,Polk County,30.9968585968018,-94.8271484375
TX,15.0,26.0,TX,San Saba,7.0,2637.0,4.0,0.0,0,0.0,4.0,4.0,San Saba County,31.195728302002,-98.7181015014648
TX,12.0,21.0,TX,Eden,9.0,2561.0,0.0,0.0,0,0.0,1.0,0.0,Concho County,31.2162742614746,-99.8456344604492
TX,2.0,5.0,TX,Bremond,3.0,876.0,4.0,0.0,0,0.0,4.0,0.0,Robertson County,31.1651821136475,-96.6769180297852
TX,15.0,21.0,TX,Bruceville-Eddy,5.0,1490.0,3.0,0.0,0,0.0,4.0,1.0,McLennan County,31.3051719665527,-97.2516708374023
TX,18.0,24.0,TX,Crane,6.0,3191.0,3.0,0.0,0,0.0,3.0,0.0,Crane County,31.3973617553711,-102.350135803223
TX,4.0,47.0,TX,Hudson,43.0,3792.0,3.0,0.0,0,0.0,3.0,0.0,Angelina County,31.3226852416992,-94.7782669067383
TX,19.0,29.0,TX,Argyle,7.0,2365.0,0.0,0.0,0,0.0,0.0,3.0,Denton County,33.1212310791016,-97.183349609375
TX,47.0,76.0,TX,Linden,25.0,2256.0,8.0,0.0,0,0.0,8.0,4.0,Cass County,33.0123481750488,-94.3654708862305
TX,31.0,59.0,TX,Daingerfield,26.0,2517.0,7.0,0.0,2,0.0,7.0,2.0,Morris County,33.031795501709,-94.7218780517578
TX,32.0,41.0,TX,Runaway Bay,9.0,1104.0,0.0,0.0,0,0.0,0.0,0.0,Wise County,33.167896270752,-97.8783721923828
TX,19.0,27.0,TX,Ponder,6.0,507.0,2.0,0.0,0,0.0,2.0,2.0,Denton County,33.1828994750977,-97.287239074707
TX,35.0,51.0,TX,Farmersville,13.0,3118.0,2.0,0.0,1,0.0,5.0,3.0,Collin County,33.163444519043,-96.359977722168
TX,122.0,149.0,TX,Prosper,24.0,2097.0,1.0,0.0,0,0.0,2.0,3.0,Collin County,33.2362289428711,-96.8011016845703
TX,74.0,99.0,TX,Melissa,24.0,1350.0,8.0,0.0,0,0.0,9.0,1.0,Collin County,33.285945892334,-96.5727691650391
TX,58.0,71.0,TX,Celina,11.0,1861.0,9.0,0.0,0,0.0,9.0,2.0,Collin County,33.3245544433594,-96.7844467163086
TX,40.0,77.0,TX,Olney,30.0,3396.0,2.0,0.0,1,0.0,2.0,7.0,Young County,33.3706665039062,-98.7528381347656
TX,13.0,19.0,TX,Knox City,5.0,1219.0,4.0,0.0,0,0.0,4.0,1.0,Knox County,33.418155670166,-99.818977355957
TX,3.0,5.0,TX,Ropesville,2.0,517.0,0.0,0.0,0,0.0,0.0,0.0,Hockley County,33.4134178161621,-102.154342651367
TX,14.0,25.0,TX,Munday,11.0,1527.0,8.0,0.0,0,0.0,8.0,0.0,Knox County,33.4492645263672,-99.6228637695312
TX,98.0,133.0,TX,Slaton,28.0,6109.0,14.0,0.0,1,0.0,16.0,7.0,Lubbock County,33.4373092651367,-101.643493652344
TX,0.0,7.0,TX,Spur,7.0,1088.0,0.0,2.0,0,0.0,2.0,0.0,Dickens County,33.4764785766602,-100.855682373047
TX,8.0,18.0,TX,Tioga,9.0,754.0,1.0,0.0,0,0.0,1.0,1.0,Grayson County,33.4667816162109,-96.918342590332
TX,9.0,10.0,TX,Ransom Canyon,0.0,1011.0,1.0,0.0,0,0.0,1.0,1.0,Lubbock County,33.5334167480469,-101.679611206055
TX,16.0,20.0,TX,Howe,2.0,2478.0,4.0,0.0,0,0.0,4.0,2.0,Grayson County,33.508716583252,-96.6122055053711
TX,40.0,64.0,TX,Wake Village,21.0,5129.0,0.0,1.0,0,0.0,3.0,3.0,Bowie County,33.4267959594727,-94.1063003540039
TX,6.0,20.0,TX,Collinsville,9.0,1235.0,2.0,0.0,0,0.0,2.0,5.0,Grayson County,33.5615005493164,-96.9111099243164
TX,162.0,207.0,TX,New Boston,36.0,4808.0,9.0,0.0,2,0.0,10.0,9.0,Bowie County,33.4598388671875,-94.4154815673828
TX,29.0,54.0,TX,De Kalb,25.0,1769.0,7.0,0.0,0,0.0,8.0,0.0,Bowie County,33.5087242126465,-94.6163177490234
TX,33.0,45.0,TX,Idalou,8.0,2157.0,5.0,0.0,0,0.0,5.0,4.0,Lubbock County,33.6664733886719,-101.682945251465
TX,2.0,4.0,TX,Lorenzo,2.0,1372.0,6.0,0.0,0,0.0,6.0,0.0,Crosby County,33.6706428527832,-101.535163879395
TX,2.0,3.0,TX,Oak Ridge,1.0,224.0,1.0,0.0,2,0.0,1.0,0.0,Cooke County,33.6481666564941,-97.0383529663086
TX,78.0,87.0,TX,Whitesboro,3.0,3760.0,3.0,0.0,0,0.0,3.0,6.0,Grayson County,33.6562156677246,-96.9069519042969
TX,56.0,64.0,TX,Shallowater,6.0,2086.0,1.0,0.0,1,0.0,1.0,2.0,Lubbock County,33.6889724731445,-101.998229980469
TX,34.0,57.0,TX,Clarksville,23.0,3883.0,4.0,0.0,1,0.0,5.0,0.0,Red River County,33.6106719970703,-95.0527191162109
TX,1.0,7.0,TX,New Deal,5.0,708.0,1.0,0.0,0,0.0,1.0,1.0,Lubbock County,33.7373046875,-101.836563110352
TX,35.0,47.0,TX,Reno,11.0,2767.0,1.0,0.0,0,0.0,1.0,1.0,Lamar County,33.6631660461426,-95.4624481201172
TX,33.0,52.0,TX,Pottsboro,13.0,1579.0,6.0,0.0,0,0.0,6.0,6.0,Grayson County,33.7592735290527,-96.6694412231445
TX,6.0,13.0,TX,Holliday,5.0,1632.0,0.0,0.0,0,0.0,0.0,2.0,Archer County,33.8162078857422,-98.6950531005859
TX,2.0,5.0,TX,Anton,0.0,1200.0,0.0,0.0,0,0.0,0.0,3.0,Hockley County,33.8112030029297,-102.163780212402
TX,1.0,3.0,TX,Crowell,2.0,1141.0,1.0,0.0,0,0.0,1.0,0.0,Foard County,33.9839744567871,-99.7248153686523
TX,19.0,42.0,TX,Floydada,21.0,3676.0,5.0,0.0,0,0.0,7.0,2.0,Floyd County,33.9845199584961,-101.33765411377
TX,1.0,8.0,TX,Paducah,7.0,1498.0,2.0,0.0,0,0.0,2.0,0.0,Cottle County,34.0122985839844,-100.302055358887
TX,81.0,145.0,TX,Burkburnett,63.0,10927.0,1.0,0.0,0,0.0,1.0,1.0,Wichita County,34.0978698730469,-98.5706176757812
TX,123.0,162.0,TX,Tulia,34.0,5117.0,37.0,0.0,1,0.0,39.0,5.0,Swisher County,34.5358924865723,-101.758514404297
TX,1.0,5.0,TX,Bovina,3.0,1874.0,1.0,0.0,0,0.0,3.0,1.0,Parmer County,34.5136833190918,-102.882995605469
TX,102.0,162.0,TX,Dimmitt,57.0,4375.0,8.0,0.0,2,0.0,9.0,3.0,Castro County,34.5508995056152,-102.311866760254
TX,21.0,34.0,TX,Friona,12.0,3854.0,7.0,0.0,0,0.0,7.0,1.0,Parmer County,34.6417388916016,-102.724105834961
TX,128.0,151.0,TX,Canyon,16.0,12875.0,9.0,0.0,0,0.0,10.0,7.0,Randall County,34.980339050293,-101.918792724609
TX,19.0,22.0,TX,Big Sandy,3.0,1288.0,2.0,0.0,0,0.0,2.0,0.0,Upshur County,32.5837516784668,-95.1088333129883
TX,16.0,22.0,TX,Hawkins,3.0,1331.0,2.0,0.0,1,0.0,2.0,3.0,Wood County,32.5884704589844,-95.2041091918945
TX,5.0,11.0,TX,East Mountain,3.0,580.0,2.0,0.0,0,0.0,2.0,3.0,Upshur County,32.59375,-94.8554916381836
TX,2.0,3.0,TX,Oak Ridge,1.0,400.0,1.0,0.0,2,0.0,1.0,0.0,Kaufman County,32.6573524475098,-96.2621994018555
TX,112.0,160.0,TX,Pantego,43.0,2318.0,3.0,0.0,0,0.0,5.0,5.0,Tarrant County,32.7143020629883,-97.1564025878906
TX,66.0,107.0,TX,Breckenridge,36.0,5868.0,3.0,0.0,0,0.0,4.0,5.0,Stephens County,32.7556838989258,-98.9022827148438
TX,59.0,68.0,TX,Grand Saline,9.0,3028.0,3.0,0.0,0,0.0,3.0,0.0,Van Zandt County,32.6734580993652,-95.7094039916992
TX,18.0,24.0,TX,Westover Hills,3.0,658.0,0.0,0.0,0,0.0,0.0,3.0,Tarrant County,32.7448501586914,-97.4136276245117
TX,85.0,105.0,TX,Hudson Oaks,16.0,1637.0,2.0,0.0,0,0.0,3.0,4.0,Parker County,32.7570686340332,-97.7066955566406
TX,43.0,117.0,TX,Cockrell Hill,34.0,4443.0,8.0,0.0,1,0.0,11.0,40.0,Dallas County,32.7362403869629,-96.8869552612305
TX,14.0,32.0,TX,Wills Point,16.0,3496.0,1.0,0.0,0,0.0,4.0,2.0,Van Zandt County,32.709300994873,-96.00830078125
TX,614.0,874.0,TX,White Settlement,213.0,14831.0,20.0,0.0,9,0.0,35.0,47.0,Tarrant County,32.7595710754395,-97.4583587646484
TX,558.0,647.0,TX,Lake Worth,57.0,4618.0,45.0,0.0,0,0.0,54.0,32.0,Tarrant County,32.8048515319824,-97.4450149536133
TX,18.0,26.0,TX,Lakeside,7.0,1040.0,0.0,0.0,0,0.0,0.0,1.0,Tarrant County,32.8223495483398,-97.4933547973633
TX,54.0,70.0,TX,Blue Mound,8.0,2388.0,1.0,0.0,0,0.0,1.0,8.0,Tarrant County,32.856517791748,-97.3389053344727
TX,231.0,302.0,TX,Colleyville,52.0,19636.0,7.0,0.0,0,0.0,9.0,19.0,Tarrant County,32.8809547424316,-97.1550064086914
TX,5.0,10.0,TX,Hawk Cove,3.0,457.0,3.0,0.0,1,0.0,3.0,2.0,Hunt County,32.8840103149414,-96.0810852050781
TX,35.0,47.0,TX,Reno,11.0,2441.0,1.0,0.0,0,0.0,1.0,1.0,Parker County,32.9442977905273,-97.5772476196289
TX,3.0,3.0,TX,O'Donnell,0.0,1011.0,0.0,0.0,0,0.0,0.0,0.0,Lynn County,32.9637107849121,-101.832656860352
TX,455.0,582.0,TX,Southlake,106.0,21519.0,10.0,0.0,3,0.0,13.0,21.0,Tarrant County,32.941234588623,-97.1341781616211
TX,20.0,40.0,TX,Quinlan,9.0,1370.0,4.0,0.0,0,0.0,4.0,11.0,Hunt County,32.910400390625,-96.1355285644531
TX,26.0,30.0,TX,Denver City,4.0,3985.0,2.0,0.0,0,0.0,2.0,0.0,Yoakum County,32.964542388916,-102.8291015625
TX,59.0,77.0,TX,Trophy Club,14.0,6350.0,1.0,0.0,1,0.0,3.0,4.0,Denton County,32.9979019165039,-97.1836166381836
TX,101.0,131.0,TX,Roanoke,22.0,2810.0,9.0,0.0,0,0.0,11.0,8.0,Denton County,33.0040130615234,-97.2258529663086
TX,34.0,54.0,TX,Winnsboro,20.0,3584.0,10.0,0.0,0,0.0,10.0,0.0,Wood County,32.9573402404785,-95.2902221679688
TX,55.0,75.0,TX,Lone Star,18.0,1631.0,7.0,0.0,0,0.0,7.0,2.0,Morris County,32.944019317627,-94.707145690918
TX,13.0,22.0,TX,Lavon,9.0,387.0,0.0,0.0,0,0.0,0.0,0.0,Collin County,33.0276184082031,-96.4341583251953
TX,7.0,13.0,TX,Double Oak,5.0,2179.0,1.0,0.0,0,0.0,1.0,1.0,Denton County,33.0651206970215,-97.1105728149414
TX,11.0,15.0,TX,Parker,2.0,1379.0,4.0,0.0,0,0.0,4.0,2.0,Collin County,33.0553970336914,-96.6219482421875
TX,42.0,65.0,TX,Haskell,18.0,3106.0,12.0,0.0,0,0.0,12.0,5.0,Haskell County,33.1576042175293,-99.7336959838867
TX,41.0,68.0,TX,Olton,26.0,2288.0,5.0,0.0,0,0.0,7.0,1.0,Lamb County,34.1834106445312,-102.134628295898
TX,2.0,5.0,TX,Kress,2.0,826.0,0.0,0.0,0,0.0,0.0,1.0,Swisher County,34.366455078125,-101.748519897461
TX,11.0,23.0,TX,Hart,11.0,1198.0,0.0,0.0,0,0.0,0.0,1.0,Castro County,34.3850708007812,-102.115745544434
TX,75.0,118.0,TX,Childress,33.0,6778.0,23.0,0.0,3,0.0,24.0,10.0,Childress County,34.426456451416,-100.204002380371
TX,1.0,2.0,TX,Gruver,1.0,1162.0,0.0,0.0,0,0.0,0.0,0.0,Hansford County,36.2650299072266,-101.406272888184
TX,87.0,111.0,TX,Perryton,20.0,7774.0,3.0,0.0,0,0.0,4.0,4.0,Ochiltree County,36.400032043457,-100.80265045166
TX,19.0,25.0,TX,Caddo Mills,6.0,1149.0,5.0,0.0,0,1.0,6.0,0.0,Hunt County,33.0656776428223,-96.2277526855469
TX,14.0,29.0,TX,Seagraves,14.0,2334.0,5.0,0.0,0,1.0,6.0,1.0,Gaines County,32.9442710876465,-102.564910888672
TX,48.0,89.0,TX,Stamford,33.0,3636.0,12.0,0.0,0,1.0,13.0,8.0,Jones County,32.9453887939453,-99.8028717041016
TX,2.0,9.0,TX,Hamlin,5.0,2248.0,4.0,0.0,0,1.0,6.0,2.0,Jones County,32.8848266601562,-100.126487731934
TX,309.0,394.0,TX,Gilmer,69.0,4799.0,12.0,0.0,1,1.0,20.0,16.0,Upshur County,32.7287483215332,-94.9424362182617
TX,24.0,36.0,TX,Willow Park,10.0,2849.0,0.0,0.0,0,1.0,1.0,2.0,Parker County,32.7626304626465,-97.6505889892578
TX,22.0,36.0,TX,Edgewood,13.0,1348.0,8.0,0.0,0,1.0,10.0,1.0,Van Zandt County,32.6981887817383,-95.8852462768555
TX,32.0,45.0,TX,Dalworthington Gard,11.0,2186.0,2.0,0.0,0,1.0,3.0,2.0,Tarrant County,32.7029151916504,-97.1552886962891
TX,379.0,522.0,TX,Benbrook,108.0,20208.0,14.0,2.0,4,1.0,28.0,35.0,Tarrant County,32.6731948852539,-97.460578918457
TX,447.0,589.0,TX,Hereford,113.0,14597.0,55.0,0.0,4,1.0,60.0,29.0,Deaf Smith County,34.8150596618652,-102.39769744873
TX,24.0,60.0,TX,Memphis,32.0,2479.0,6.0,0.0,0,1.0,7.0,4.0,Hall County,34.7247734069824,-100.53401184082
TX,53.0,76.0,TX,Lakeview,17.0,152.0,6.0,0.0,2,1.0,8.0,6.0,Hall County,34.6747741699219,-100.69930267334
TX,13.0,20.0,TX,Lockney,7.0,2056.0,4.0,0.0,0,1.0,5.0,0.0,Floyd County,34.12451171875,-101.441551208496
TX,43.0,82.0,TX,Electra,30.0,3168.0,2.0,0.0,1,1.0,3.0,9.0,Wichita County,34.0292625427246,-98.9189529418945
TX,26.0,36.0,TX,Abernathy,9.0,2839.0,1.0,0.0,0,1.0,2.0,1.0,Hale County,33.8322982788086,-101.842948913574
TX,41.0,63.0,TX,Nash,16.0,2169.0,3.0,2.0,0,1.0,6.0,6.0,Bowie County,33.4423446655273,-94.1307525634766
TX,11.0,19.0,TX,Bogata,7.0,1396.0,1.0,0.0,1,1.0,2.0,1.0,Red River County,33.4706687927246,-95.2138290405273
TX,38.0,52.0,TX,Queen City,12.0,1613.0,9.0,0.0,0,1.0,11.0,2.0,Cass County,33.148738861084,-94.1501922607422
TX,344.0,476.0,TX,Mount Pleasant,96.0,13935.0,30.0,0.0,1,1.0,41.0,36.0,Titus County,33.1567878723145,-94.9682769775391
TX,239.0,343.0,TX,Sulphur Springs,85.0,14551.0,26.0,0.0,6,1.0,29.0,19.0,Hopkins County,33.1384429931641,-95.6010665893555
TX,44.0,68.0,TX,Tahoka,21.0,2910.0,3.0,0.0,1,1.0,5.0,3.0,Lynn County,33.1667633056641,-101.793762207031
TX,8.0,9.0,TX,Northlake,1.0,921.0,0.0,0.0,0,1.0,1.0,0.0,Denton County,33.1273422241211,-97.2655792236328
TX,198.0,284.0,TX,Gatesville,70.0,15591.0,22.0,0.0,3,1.0,26.0,16.0,Coryell County,31.4351634979248,-97.7439041137695
TX,26.0,42.0,TX,Lorena,15.0,1433.0,0.0,0.0,0,1.0,1.0,1.0,McLennan County,31.3865604400635,-97.2155609130859
TX,56.0,110.0,TX,Nolanville,43.0,2150.0,5.0,0.0,0,1.0,7.0,11.0,Bell County,31.0787868499756,-97.6055679321289
TX,16.0,21.0,TX,Shamrock,3.0,2029.0,0.0,1.0,0,1.0,3.0,2.0,Wheeler County,35.2142181396484,-100.249008178711
TX,96.0,138.0,TX,White Oak,31.0,5624.0,3.0,0.0,0,1.0,5.0,11.0,Gregg County,32.5279235839844,-94.8613204956055
TX,153.0,318.0,TX,Glenn Heights,141.0,7224.0,26.0,0.0,3,1.0,31.0,24.0,Dallas County,32.5511131286621,-96.8541488647461
TX,50.0,82.0,TX,Ferris,28.0,2175.0,2.0,1.0,1,1.0,5.0,4.0,Ellis County,32.5340270996094,-96.6655578613281
TX,28.0,46.0,TX,Ovilla,14.0,3405.0,0.0,0.0,1,1.0,2.0,4.0,Ellis County,32.5265274047852,-96.8863906860352
TX,25.0,31.0,TX,Palmer,3.0,1774.0,4.0,0.0,0,1.0,5.0,3.0,Ellis County,32.4312515258789,-96.6677703857422
TX,20.0,30.0,TX,Tatum,9.0,1175.0,1.0,0.0,0,1.0,2.0,1.0,Rusk County,32.3159866333008,-94.5165939331055
TX,24.0,42.0,TX,Tye,14.0,1158.0,1.0,0.0,1,1.0,2.0,4.0,Taylor County,32.4576225280762,-99.8714752197266
TX,45.0,69.0,TX,Clyde,14.0,3345.0,9.0,0.0,0,1.0,10.0,10.0,Callahan County,32.4059562683105,-99.4936904907227
TX,81.0,123.0,TX,Cisco,30.0,3851.0,6.0,0.0,0,1.0,7.0,12.0,Eastland County,32.3881912231445,-98.9792327880859
TX,74.0,97.0,TX,Seven Points,18.0,1145.0,12.0,0.0,0,1.0,14.0,5.0,Henderson County,32.3204231262207,-96.2130355834961
TX,86.0,114.0,TX,Nassau Bay,21.0,4170.0,6.0,0.0,0,1.0,11.0,7.0,Harris County,29.5446701049805,-95.0910339355469
TX,58.0,81.0,TX,Eagle Lake,23.0,3664.0,17.0,0.0,1,1.0,21.0,0.0,Colorado County,29.5896778106689,-96.3335723876953
TX,192.0,221.0,TX,Selma,20.0,788.0,9.0,0.0,0,1.0,14.0,9.0,Bexar County,29.5826396942139,-98.3147048950195
TX,298.0,363.0,TX,Windcrest,49.0,5105.0,12.0,0.0,1,1.0,17.0,16.0,Bexar County,29.515510559082,-98.3802871704102
TX,26.0,39.0,TX,Olmos Park,6.0,2343.0,0.0,0.0,1,1.0,2.0,7.0,Bexar County,29.4788398742676,-98.4875183105469
TX,297.0,375.0,TX,Wharton,69.0,9237.0,45.0,0.0,2,1.0,50.0,9.0,Wharton County,29.311637878418,-96.1027374267578
TX,20.0,27.0,TX,Stanton,6.0,2556.0,1.0,0.0,0,1.0,3.0,1.0,Martin County,32.1292915344238,-101.788475036621
TX,42.0,62.0,TX,Kermit,18.0,5714.0,9.0,0.0,1,1.0,10.0,2.0,Winkler County,31.8576259613037,-103.092658996582
TX,141.0,201.0,TX,Horizon City,32.0,5233.0,19.0,0.0,9,1.0,20.0,28.0,El Paso County,31.6926116943359,-106.207473754883
TX,34.0,57.0,TX,San Augustine,20.0,2475.0,19.0,0.0,0,1.0,20.0,3.0,San Augustine County,31.5299015045166,-94.1060256958008
TX,55.0,86.0,TX,Mart,26.0,2273.0,3.0,0.0,0,1.0,4.0,5.0,McLennan County,31.5423889160156,-96.8335952758789
TX,9.0,11.0,TX,Riesel,1.0,973.0,1.0,0.0,0,1.0,2.0,1.0,McLennan County,31.474889755249,-96.9233245849609
TX,184.0,230.0,TX,Robinson,42.0,7845.0,6.0,0.0,0,1.0,12.0,4.0,McLennan County,31.4676685333252,-97.1147155761719
TX,50.0,69.0,TX,Llano,16.0,3325.0,3.0,0.0,0,1.0,4.0,3.0,Llano County,30.759349822998,-98.6750335693359
TX,33.0,52.0,TX,Granite Shoals,12.0,2040.0,3.0,0.0,0,1.0,4.0,7.0,Burnet County,30.5890789031982,-98.383918762207
TX,250.0,306.0,TX,Marble Falls,42.0,4959.0,15.0,0.0,1,1.0,18.0,14.0,Burnet County,30.5782489776611,-98.2727966308594
TX,40.0,59.0,TX,Horseshoe Bay,14.0,-99999.0,0.0,0.0,0,1.0,1.0,5.0,Llano County,30.5372982025146,-98.3551025390625
TX,54.0,83.0,TX,Kountze,21.0,2115.0,6.0,0.0,0,1.0,9.0,8.0,Hardin County,30.3715972900391,-94.3124084472656
TX,143.0,222.0,TX,Willis,54.0,3985.0,18.0,0.0,0,1.0,27.0,25.0,Montgomery County,30.4249267578125,-95.4799423217773
TX,56.0,71.0,TX,Junction,14.0,2618.0,23.0,0.0,2,1.0,24.0,1.0,Kimble County,30.4893589019775,-99.7720108032227
TX,23.0,30.0,TX,Montgomery,7.0,489.0,1.0,0.0,0,1.0,2.0,0.0,Montgomery County,30.3882656097412,-95.6963348388672
TX,8.0,12.0,TX,Onalaska,2.0,1174.0,0.0,0.0,0,1.0,1.0,2.0,Polk County,30.8049068450928,-95.1063690185547
TX,45.0,81.0,TX,Alpine,32.0,5786.0,12.0,0.0,0,1.0,13.0,4.0,Brewster County,30.3584880828857,-103.661018371582
TX,120.0,156.0,TX,Lakeway,31.0,8002.0,6.0,0.0,0,1.0,7.0,5.0,Travis County,30.3679809570312,-97.9916763305664
TX,15.0,25.0,TX,Magnolia,7.0,1111.0,2.0,0.0,0,1.0,7.0,3.0,Montgomery County,30.2093830108643,-95.7507858276367
TX,32.0,42.0,TX,Sour Lake,6.0,1667.0,2.0,0.0,0,1.0,3.0,4.0,Hardin County,30.1402111053467,-94.411018371582
TX,10.0,18.0,TX,Mustang Ridge,6.0,785.0,3.0,0.0,0,1.0,4.0,2.0,Travis County,30.056884765625,-97.6911087036133
TX,88.0,118.0,TX,Bellville,25.0,3794.0,3.0,0.0,0,1.0,4.0,5.0,Austin County,29.9502258300781,-96.2571868896484
TX,45.0,91.0,TX,La Grange,45.0,4478.0,2.0,0.0,0,1.0,5.0,1.0,Fayette County,29.9055042266846,-96.8766479492188
TX,228.0,363.0,TX,Jacinto City,93.0,10302.0,65.0,1.0,1,1.0,79.0,42.0,Harris County,29.7674465179443,-95.2338256835938
TX,44.0,112.0,TX,Brookshire,50.0,3450.0,9.0,1.0,0,1.0,18.0,18.0,Waller County,29.786060333252,-95.9510650634766
TX,193.0,232.0,TX,Sealy,23.0,5248.0,12.0,0.0,0,1.0,18.0,16.0,Austin County,29.7807922363281,-96.1571731567383
TX,302.0,390.0,TX,Bellaire,74.0,15642.0,4.0,0.0,1,1.0,24.0,14.0,Harris County,29.7057914733887,-95.4588317871094
TX,176.0,218.0,TX,Boerne,33.0,6178.0,10.0,1.0,0,1.0,13.0,9.0,Kendall County,29.7946586608887,-98.7319717407227
TX,9.0,11.0,TX,Flatonia,0.0,1377.0,2.0,0.0,0,1.0,3.0,2.0,Fayette County,29.6877326965332,-97.1085968017578
TX,83.0,107.0,TX,West Columbia,19.0,4255.0,4.0,0.0,0,1.0,5.0,5.0,Brazoria County,29.1438579559326,-95.6452178955078
TX,119.0,143.0,TX,Devine,20.0,4140.0,3.0,0.0,0,1.0,4.0,4.0,Medina County,29.1399612426758,-98.9053039550781
TX,58.0,86.0,TX,Sweeny,22.0,3624.0,7.0,1.0,1,1.0,9.0,6.0,Brazoria County,29.0388603210449,-95.6985626220703
TX,41.0,51.0,TX,Karnes City,9.0,3457.0,6.0,0.0,1,1.0,7.0,1.0,Karnes County,28.8849754333496,-97.9008407592773
TX,147.0,193.0,TX,Sinton,43.0,5676.0,9.0,1.0,3,1.0,13.0,3.0,San Patricio County,28.0366840362549,-97.509162902832
TX,47.0,71.0,TX,Premont,18.0,2772.0,5.0,0.0,0,1.0,6.0,6.0,Jim Wells County,27.360595703125,-98.1236114501953
TX,63.0,98.0,TX,Los Fresnos,31.0,4512.0,3.0,0.0,2,1.0,5.0,4.0,Cameron County,26.0717449188232,-97.4763717651367
TX,182.0,294.0,TX,Hidalgo,66.0,7322.0,19.0,1.0,1,2.0,27.0,46.0,Hidalgo County,26.1003551483154,-98.263069152832
TX,2206.0,2769.0,TX,Mission,275.0,45408.0,36.0,2.0,2,2.0,64.0,288.0,Hidalgo County,26.2159118652344,-98.3252868652344
TX,13.0,27.0,TX,Penitas,12.0,1167.0,4.0,0.0,0,2.0,7.0,2.0,Hidalgo County,26.2306308746338,-98.4447402954102
TX,26.0,122.0,TX,Sullivan City,89.0,3998.0,8.0,1.0,1,2.0,12.0,7.0,Hidalgo County,26.2775688171387,-98.5636291503906
TX,133.0,212.0,TX,Falfurrias,74.0,5297.0,23.0,0.0,5,2.0,28.0,5.0,Brooks County,27.2269897460938,-98.144172668457
TX,568.0,701.0,TX,Lake Jackson,110.0,26386.0,22.0,0.0,2,2.0,33.0,23.0,Brazoria County,29.0338554382324,-95.4343948364258
TX,75.0,104.0,TX,Brazoria,14.0,2787.0,9.0,0.0,0,2.0,13.0,15.0,Brazoria County,29.0444183349609,-95.5691146850586
TX,91.0,138.0,TX,Columbus,42.0,3916.0,18.0,0.0,4,2.0,20.0,5.0,Colorado County,29.7066249847412,-96.5396881103516
TX,201.0,252.0,TX,Hedwig Village,33.0,2334.0,4.0,0.0,0,2.0,12.0,18.0,Harris County,29.7774486541748,-95.5171585083008
TX,373.0,434.0,TX,Bastrop,43.0,5340.0,11.0,0.0,0,2.0,17.0,18.0,Bastrop County,30.1104965209961,-97.3152694702148
TX,300.0,506.0,TX,Port Neches,173.0,13601.0,9.0,0.0,11,2.0,12.0,33.0,Jefferson County,29.9913234710693,-93.9585037231445
TX,142.0,212.0,TX,Dayton,46.0,5709.0,8.0,0.0,1,2.0,13.0,24.0,Liberty County,30.0466060638428,-94.8852081298828
TX,230.0,314.0,TX,West Orange,66.0,4111.0,5.0,0.0,1,2.0,10.0,18.0,Orange County,30.0821495056152,-93.7582244873047
TX,40.0,48.0,TX,Marfa,6.0,2121.0,2.0,0.0,1,2.0,4.0,2.0,Presidio County,30.3079395294189,-104.019065856934
TX,294.0,382.0,TX,Lumberton,76.0,8731.0,14.0,0.0,0,2.0,19.0,12.0,Hardin County,30.2657699584961,-94.1996231079102
TX,317.0,403.0,TX,Taylor,68.0,13575.0,28.0,0.0,3,2.0,33.0,18.0,Williamson County,30.5707607269287,-97.4094467163086
TX,79.0,119.0,TX,Rockdale,32.0,5439.0,14.0,0.0,0,2.0,19.0,8.0,Milam County,30.6554775238037,-97.0013732910156
TX,72.0,107.0,TX,Burnet,31.0,4735.0,12.0,0.0,0,2.0,14.0,4.0,Burnet County,30.7582416534424,-98.2283630371094
TX,138.0,179.0,TX,Hearne,35.0,4690.0,25.0,0.0,3,2.0,28.0,6.0,Robertson County,30.8785209655762,-96.5930328369141
TX,121.0,166.0,TX,Woodway,39.0,8733.0,7.0,0.0,1,2.0,9.0,6.0,McLennan County,31.5059967041016,-97.2050018310547
TX,71.0,104.0,TX,Comanche,31.0,4482.0,6.0,2.0,1,2.0,10.0,2.0,Comanche County,31.897367477417,-98.6036605834961
TX,214.0,301.0,TX,Center,70.0,5678.0,21.0,2.0,0,2.0,27.0,17.0,Shelby County,31.7954540252686,-94.179084777832
TX,257.0,371.0,TX,Universal City,79.0,14849.0,22.0,0.0,4,2.0,30.0,35.0,Bexar County,29.5480079650879,-98.2911224365234
TX,235.0,393.0,TX,Sweetwater,147.0,11415.0,22.0,1.0,0,2.0,36.0,11.0,Nolan County,32.470947265625,-100.405944824219
TX,62.0,83.0,TX,Joshua,20.0,4528.0,6.0,0.0,0,2.0,13.0,1.0,Johnson County,32.4615325927734,-97.3880767822266
TX,293.0,356.0,TX,Dumas,54.0,13747.0,23.0,0.0,1,2.0,28.0,9.0,Moore County,35.8655967712402,-101.973236083984
TX,25.0,28.0,TX,Spearman,3.0,3021.0,9.0,0.0,0,2.0,11.0,0.0,Hansford County,36.1983642578125,-101.192375183105
TX,45.0,122.0,TX,Brady,76.0,5523.0,24.0,0.0,1,2.0,26.0,1.0,McCulloch County,31.1351680755615,-99.3350524902344
TX,265.0,359.0,TX,Crockett,81.0,7141.0,46.0,0.0,0,2.0,52.0,13.0,Houston County,31.3182411193848,-95.4566116333008
TX,23.0,37.0,TX,Huntington,12.0,2068.0,3.0,1.0,0,2.0,6.0,2.0,Angelina County,31.2776870727539,-94.5765991210938
TX,80.0,125.0,TX,McGregor,43.0,4727.0,17.0,0.0,1,2.0,21.0,2.0,McLennan County,31.444055557251,-97.4091796875
TX,99.0,162.0,TX,Pittsburg,55.0,4347.0,17.0,1.0,0,2.0,26.0,8.0,Camp County,32.9954071044922,-94.9657745361328
TX,64.0,79.0,TX,Royse City,11.0,2957.0,4.0,0.0,1,2.0,8.0,4.0,Rockwall County,32.9751205444336,-96.3324813842773
TX,624.0,829.0,TX,Coppell,145.0,35958.0,16.0,0.0,3,2.0,29.0,60.0,Dallas County,32.9545669555664,-97.0149993896484
TX,50.0,79.0,TX,Springtown,29.0,2062.0,16.0,0.0,0,2.0,19.0,0.0,Parker County,32.9659538269043,-97.6836318969727
TX,33.0,54.0,TX,West Tawakoni,17.0,1462.0,6.0,0.0,0,2.0,8.0,4.0,Hunt County,32.8937301635742,-96.029411315918
TX,388.0,521.0,TX,Azle,108.0,9600.0,26.0,0.0,4,2.0,37.0,25.0,Parker County,32.8951263427734,-97.5458602905273
TX,51.0,74.0,TX,Jefferson,17.0,2024.0,10.0,0.0,0,2.0,16.0,6.0,Marion County,32.7573623657227,-94.3451919555664
TX,394.0,483.0,TX,University Park,70.0,23324.0,9.0,0.0,0,2.0,20.0,19.0,Dallas County,32.8501243591309,-96.8002853393555
TX,26.0,39.0,TX,Quitman,10.0,2030.0,5.0,0.0,1,2.0,8.0,3.0,Wood County,32.795955657959,-95.451057434082
TX,491.0,665.0,TX,Watauga,127.0,21908.0,29.0,0.0,5,2.0,53.0,47.0,Tarrant County,32.85791015625,-97.2547302246094
TX,364.0,490.0,TX,Saginaw,84.0,12374.0,20.0,1.0,2,2.0,32.0,42.0,Tarrant County,32.8601264953613,-97.3639068603516
TX,67.0,71.0,TX,Hickory Creek,1.0,2078.0,2.0,0.0,0,2.0,6.0,3.0,Denton County,33.1223411560059,-97.0430679321289
TX,131.0,217.0,TX,Lamesa,74.0,9952.0,46.0,0.0,0,2.0,53.0,12.0,Dawson County,32.7375984191895,-101.950996398926
TX,67.0,86.0,TX,Seminole,18.0,5910.0,1.0,1.0,0,2.0,7.0,1.0,Gaines County,32.718994140625,-102.644905090332
TX,25.0,37.0,TX,Jacksboro,10.0,4533.0,1.0,0.0,1,2.0,3.0,2.0,Jack County,33.2184448242188,-98.1586532592773
TX,56.0,91.0,TX,Hutchins,17.0,2805.0,10.0,0.0,0,2.0,17.0,18.0,Dallas County,32.6493034362793,-96.7130584716797
TX,387.0,616.0,TX,Seagoville,152.0,10823.0,24.0,0.0,0,2.0,38.0,77.0,Dallas County,32.6395721435547,-96.538330078125
TX,216.0,275.0,TX,Decatur,42.0,5201.0,9.0,0.0,0,2.0,13.0,17.0,Wise County,33.2342872619629,-97.5861358642578
TX,84.0,121.0,TX,Anna,32.0,1225.0,1.0,0.0,1,2.0,4.0,5.0,Collin County,33.3489990234375,-96.5485992431641
TX,52.0,85.0,TX,Pilot Point,28.0,3538.0,8.0,0.0,0,2.0,10.0,5.0,Denton County,33.3965034484863,-96.960563659668
TX,53.0,68.0,TX,Van Alstyne,12.0,2502.0,4.0,0.0,1,2.0,6.0,3.0,Grayson County,33.421501159668,-96.5772094726562
TX,44.0,60.0,TX,Wolfforth,10.0,2554.0,2.0,0.0,1,2.0,5.0,6.0,Lubbock County,33.5059127807617,-102.009063720703
TX,8.0,15.0,TX,Hooks,6.0,2973.0,2.0,1.0,0,2.0,5.0,1.0,Bowie County,33.4662322998047,-94.2885284423828
TX,40.0,62.0,TX,Nocona,17.0,3198.0,2.0,0.0,0,2.0,4.0,5.0,Montague County,33.7867736816406,-97.7258682250977
TX,76.0,115.0,TX,Iowa Park,30.0,6431.0,3.0,0.0,0,2.0,5.0,9.0,Wichita County,33.9514846801758,-98.6686630249023
TX,7.0,12.0,TX,Hale Center,4.0,2263.0,2.0,0.0,0,3.0,5.0,1.0,Hale County,34.0642471313477,-101.843780517578
TX,112.0,162.0,TX,Princeton,37.0,3477.0,10.0,0.0,3,3.0,16.0,13.0,Collin County,33.1801147460938,-96.498046875
TX,147.0,191.0,TX,Bridgeport,35.0,4309.0,10.0,0.0,0,3.0,14.0,9.0,Wise County,33.2101135253906,-97.754753112793
TX,102.0,145.0,TX,Lake Dallas,32.0,6166.0,10.0,0.0,0,3.0,15.0,11.0,Denton County,33.1192932128906,-97.0255737304688
TX,1153.0,1607.0,TX,Euless,298.0,46005.0,64.0,0.0,9,3.0,103.0,156.0,Tarrant County,32.8370704650879,-97.0819625854492
TX,10.0,18.0,TX,Pelican Bay,7.0,1505.0,10.0,0.0,1,3.0,13.0,1.0,Tarrant County,32.920955657959,-97.5183563232422
TX,755.0,1192.0,TX,Farmers Branch,238.0,27508.0,32.0,1.0,1,3.0,65.0,199.0,Dallas County,32.9265174865723,-96.896110534668
TX,147.0,190.0,TX,Sachse,33.0,9751.0,8.0,0.0,0,3.0,11.0,10.0,Dallas County,32.9762306213379,-96.5952682495117
TX,242.0,298.0,TX,Graham,44.0,8716.0,10.0,0.0,3,3.0,15.0,12.0,Young County,33.1070556640625,-98.5895080566406
TX,67.0,85.0,TX,Highland Village,17.0,12173.0,8.0,0.0,0,3.0,13.0,1.0,Denton County,33.0917930603027,-97.0466766357422
TX,90.0,140.0,TX,Muleshoe,44.0,4530.0,15.0,0.0,0,3.0,18.0,6.0,Bailey County,34.2264709472656,-102.723823547363
TX,145.0,214.0,TX,Dalhart,60.0,7237.0,29.0,0.0,0,3.0,37.0,9.0,Dallam County,36.0594749450684,-102.513252258301
TX,177.0,262.0,TX,Midlothian,63.0,7480.0,13.0,0.0,0,3.0,18.0,22.0,Ellis County,32.4823570251465,-96.9944534301758
TX,113.0,158.0,TX,Colorado City,39.0,4281.0,28.0,0.0,0,3.0,32.0,6.0,Mitchell County,32.3881797790527,-100.864555358887
TX,61.0,83.0,TX,Whitehouse,14.0,5346.0,8.0,0.0,3,3.0,11.0,8.0,Smith County,32.2268218994141,-95.2255096435547
TX,204.0,282.0,TX,Luling,63.0,5080.0,13.0,0.0,2,3.0,25.0,15.0,Caldwell County,29.6805095672607,-97.6474914550781
TX,81.0,96.0,TX,Kemah,9.0,2330.0,6.0,0.0,0,3.0,10.0,6.0,Galveston County,29.5427284240723,-95.0204849243164
TX,474.0,576.0,TX,Live Oak,54.0,9156.0,18.0,0.0,1,3.0,27.0,48.0,Bexar County,29.5652294158936,-98.3364028930664
TX,63.0,90.0,TX,Dublin,21.0,3754.0,11.0,0.0,2,3.0,15.0,6.0,Erath County,32.0851402282715,-98.3419876098633
TX,163.0,268.0,TX,Fort Stockton,94.0,7846.0,14.0,0.0,1,3.0,18.0,11.0,Pecos County,30.8940448760986,-102.879325866699
TX,159.0,241.0,TX,Hempstead,61.0,4691.0,27.0,1.0,2,3.0,37.0,21.0,Waller County,30.0974369049072,-96.0782928466797
TX,115.0,146.0,TX,Smithville,29.0,3901.0,18.0,0.0,2,3.0,24.0,2.0,Bastrop County,30.0085506439209,-97.1594390869141
TX,149.0,175.0,TX,Mont Belvieu,13.0,2324.0,1.0,0.0,1,3.0,6.0,13.0,Chambers County,29.8477210998535,-94.8907623291016
TX,204.0,251.0,TX,Floresville,43.0,5868.0,15.0,0.0,2,3.0,18.0,4.0,Wilson County,29.1335735321045,-98.1561126708984
TX,651.0,894.0,TX,Bay City,210.0,18667.0,104.0,1.0,2,3.0,166.0,33.0,Matagorda County,28.9827556610107,-95.9694061279297
TX,858.0,1275.0,TX,Kingsville,372.0,25575.0,223.0,0.0,0,3.0,245.0,45.0,Kleberg County,27.5158729553223,-97.8561019897461
TX,263.0,430.0,TX,Rio Grande City,100.0,11923.0,15.0,0.0,0,3.0,25.0,67.0,Starr County,26.3797836303711,-98.8203048706055
TX,33.0,79.0,TX,Combes,38.0,2553.0,11.0,0.0,0,3.0,16.0,8.0,Cameron County,26.2486801147461,-97.7338790893555
TX,247.0,354.0,TX,Kaufman,77.0,6490.0,12.0,1.0,1,4.0,20.0,30.0,Kaufman County,32.5890235900879,-96.3088684082031
TX,198.0,342.0,TX,Kennedale,120.0,5850.0,33.0,0.0,3,4.0,42.0,24.0,Tarrant County,32.6468048095703,-97.2258529663086
TX,220.0,307.0,TX,Forney,60.0,5588.0,11.0,0.0,0,4.0,17.0,27.0,Kaufman County,32.7481880187988,-96.4719390869141
TX,248.0,379.0,TX,Bonham,117.0,9990.0,46.0,0.0,1,4.0,50.0,14.0,Fannin County,33.5773277282715,-96.1783142089844
TX,427.0,514.0,TX,La Feria,85.0,6115.0,17.0,0.0,0,4.0,21.0,2.0,Cameron County,26.1589622497559,-97.8238830566406
TX,216.0,326.0,TX,Richland Hills,69.0,8132.0,14.0,0.0,0,4.0,24.0,41.0,Tarrant County,32.8159599304199,-97.2280731201172
TX,166.0,238.0,TX,Corinth,54.0,-99999.0,9.0,0.0,0,4.0,16.0,18.0,Jones County,32.8544845581055,-99.8700866699219
TX,634.0,876.0,TX,Stafford,147.0,15681.0,45.0,2.0,0,4.0,84.0,95.0,Fort Bend County,29.6160640716553,-95.5577239990234
TX,82.0,107.0,TX,Heath,22.0,4149.0,9.0,0.0,0,4.0,13.0,3.0,Rockwall County,32.8365173339844,-96.474983215332
TX,131.0,164.0,TX,Cibolo,26.0,3035.0,8.0,0.0,2,4.0,12.0,7.0,Guadalupe County,29.5616188049316,-98.2269592285156
TX,48.0,69.0,TX,Poteet,18.0,3305.0,11.0,0.0,0,4.0,17.0,3.0,Atascosa County,29.0405254364014,-98.5680770874023
TX,579.0,705.0,TX,Leon Valley,81.0,9239.0,17.0,0.0,0,4.0,33.0,45.0,Bexar County,29.495231628418,-98.6186294555664
TX,519.0,661.0,TX,Balcones Heights,102.0,3016.0,34.0,0.0,0,4.0,56.0,40.0,Bexar County,29.4880104064941,-98.5516891479492
TX,309.0,387.0,TX,El Campo,62.0,10945.0,20.0,0.0,4,4.0,39.0,16.0,Wharton County,29.1966419219971,-96.2696838378906
TX,20.0,42.0,TX,Fair Oaks Ranch,22.0,4695.0,12.0,0.0,0,4.0,16.0,0.0,Comal County,29.7457809448242,-98.6433563232422
TX,304.0,497.0,TX,La Porte,113.0,31880.0,78.0,0.0,27,4.0,90.0,80.0,Harris County,29.6657886505127,-95.0193786621094
TX,301.0,406.0,TX,Lockhart,92.0,11615.0,67.0,0.0,3,4.0,77.0,13.0,Caldwell County,29.8849411010742,-97.6699981689453
TX,133.0,181.0,TX,Giddings,44.0,5105.0,23.0,0.0,0,4.0,27.0,4.0,Lee County,30.1827163696289,-96.9363708496094
TX,152.0,204.0,TX,Hewitt,46.0,11085.0,11.0,0.0,2,4.0,17.0,6.0,McLennan County,31.4623870849609,-97.1958389282227
TX,75.0,117.0,TX,Marlin,31.0,6628.0,14.0,0.0,0,4.0,24.0,11.0,Falls County,31.3062858581543,-96.8980484008789
TX,68.0,131.0,TX,Diboll,55.0,5470.0,13.0,0.0,2,4.0,18.0,8.0,Angelina County,31.187126159668,-94.7810363769531
TX,166.0,238.0,TX,Corinth,54.0,11325.0,9.0,0.0,0,4.0,16.0,18.0,Denton County,33.1540107727051,-97.0647277832031
TX,171.0,224.0,TX,Cameron,47.0,5634.0,7.0,0.0,2,4.0,15.0,6.0,Milam County,30.85325050354,-96.976936340332
TX,104.0,140.0,TX,Little Elm,22.0,3646.0,15.0,0.0,0,4.0,20.0,14.0,Denton County,33.1599769592285,-96.9277420043945
TX,292.0,420.0,TX,Navasota,107.0,6789.0,23.0,0.0,1,5.0,36.0,21.0,Grimes County,30.3879852294922,-96.0877380371094
TX,527.0,790.0,TX,Harker Heights,217.0,17308.0,9.0,0.0,1,5.0,27.0,46.0,Bell County,31.0835075378418,-97.6597290039062
TX,286.0,469.0,TX,Vidor,125.0,11440.0,24.0,0.0,1,5.0,37.0,58.0,Orange County,30.1316013336182,-94.0154571533203
TX,385.0,486.0,TX,Mexia,86.0,6563.0,23.0,0.0,2,5.0,41.0,15.0,Limestone County,31.6798877716064,-96.4822006225586
TX,497.0,605.0,TX,Vernon,90.0,11660.0,58.0,0.0,12,5.0,74.0,18.0,Wilbarger County,34.1545295715332,-99.2650756835938
TX,167.0,263.0,TX,Galena Park,75.0,10592.0,20.0,0.0,0,5.0,32.0,21.0,Harris County,29.7335586547852,-95.2302169799805
TX,154.0,219.0,TX,Atlanta,55.0,5745.0,21.0,0.0,0,5.0,36.0,10.0,Cass County,33.1137390136719,-94.1643600463867
TX,50.0,58.0,TX,Hallettsville,6.0,2345.0,8.0,0.0,1,5.0,13.0,2.0,Lavaca County,29.4438514709473,-96.9410858154297
TX,886.0,1177.0,TX,Uvalde,268.0,14929.0,67.0,1.0,10,5.0,85.0,23.0,Uvalde County,29.2096786499023,-99.7861633300781
TX,101.0,133.0,TX,Edna,29.0,5899.0,10.0,0.0,1,5.0,15.0,3.0,Jackson County,28.9785919189453,-96.6460800170898
TX,413.0,562.0,TX,Wylie,121.0,15132.0,20.0,0.0,1,5.0,28.0,28.0,Collin County,33.0151176452637,-96.5388793945312
TX,955.0,1280.0,TX,Addison,190.0,14166.0,60.0,3.0,4,5.0,104.0,135.0,Dallas County,32.9617919921875,-96.8291702270508
TX,124.0,189.0,TX,Seabrook,49.0,9443.0,25.0,0.0,0,5.0,33.0,16.0,Harris County,29.5641193389893,-95.0254898071289
TX,59.0,89.0,TX,Malakoff,19.0,2257.0,8.0,0.0,0,5.0,14.0,11.0,Henderson County,32.1695938110352,-96.0124664306641
TX,793.0,1128.0,TX,Denison,270.0,22773.0,63.0,1.0,0,5.0,92.0,65.0,Grayson County,33.7556648254395,-96.5366592407227
TX,88.0,114.0,TX,Alvarado,20.0,3288.0,7.0,0.0,1,5.0,12.0,6.0,Johnson County,32.4065322875977,-97.2116775512695
TX,793.0,1045.0,TX,Donna,176.0,14768.0,67.0,2.0,6,5.0,90.0,76.0,Hidalgo County,26.170352935791,-98.0519485473633
TX,125.0,200.0,TX,River Oaks,60.0,6985.0,8.0,0.0,0,5.0,13.0,15.0,Tarrant County,32.7770690917969,-97.3944702148438
TX,290.0,358.0,TX,Bowie,47.0,5219.0,12.0,0.0,1,5.0,19.0,21.0,Montague County,33.5589981079102,-97.8486404418945
TX,429.0,670.0,TX,Mercedes,170.0,13649.0,56.0,0.0,10,5.0,69.0,71.0,Hidalgo County,26.1497936248779,-97.9136047363281
TX,835.0,1415.0,TX,DeSoto,446.0,37646.0,61.0,2.0,9,6.0,103.0,134.0,Dallas County,32.5898590087891,-96.8569412231445
TX,102.0,167.0,TX,Everman,46.0,5836.0,19.0,0.0,3,6.0,32.0,19.0,Tarrant County,32.6309623718262,-97.289176940918
TX,941.0,1436.0,TX,Cedar Hill,375.0,32093.0,79.0,2.0,6,6.0,117.0,120.0,Dallas County,32.5884666442871,-96.9561157226562
TX,162.0,229.0,TX,Crowley,52.0,7467.0,19.0,0.0,1,6.0,29.0,15.0,Tarrant County,32.579029083252,-97.3625183105469
TX,1499.0,2147.0,TX,Weslaco,421.0,26935.0,106.0,1.0,0,6.0,153.0,227.0,Hidalgo County,26.1595230102539,-97.9908447265625
TX,637.0,838.0,TX,Ennis,152.0,16045.0,31.0,3.0,0,6.0,69.0,49.0,Ellis County,32.3293151855469,-96.6252670288086
TX,1322.0,1609.0,TX,Sugar Land,212.0,63328.0,50.0,0.0,5,6.0,101.0,75.0,Fort Bend County,29.6196746826172,-95.6349411010742
TX,203.0,328.0,TX,Richmond,102.0,11081.0,42.0,0.0,6,6.0,60.0,23.0,Fort Bend County,29.5821762084961,-95.7607879638672
TX,626.0,843.0,TX,Aransas Pass,192.0,8138.0,25.0,1.0,0,6.0,52.0,25.0,San Patricio County,27.9094715118408,-97.1499862670898
TX,156.0,214.0,TX,Sanger,48.0,4534.0,6.0,1.0,0,6.0,14.0,10.0,Denton County,33.3631744384766,-97.1738967895508
TX,435.0,664.0,TX,Alvin,182.0,21413.0,55.0,0.0,5,6.0,75.0,47.0,Brazoria County,29.4238471984863,-95.2441024780273
TX,2489.0,3782.0,TX,Carrollton,815.0,109576.0,131.0,5.0,26,6.0,229.0,478.0,Dallas County,32.9537315368652,-96.8902816772461
TX,954.0,1425.0,TX,Greenville,357.0,23960.0,177.0,2.0,0,6.0,230.0,114.0,Hunt County,33.1384429931641,-96.1108093261719
TX,27.0,47.0,TX,Yorktown,20.0,2271.0,15.0,0.0,1,6.0,22.0,0.0,DeWitt County,28.9810848236084,-97.5027770996094
TX,941.0,1436.0,TX,Cedar Hill,375.0,-99999.0,79.0,2.0,6,6.0,117.0,120.0,Floyd County,34.1436958312988,-101.205169677734
TX,181.0,260.0,TX,Lacy-Lakeview,51.0,5764.0,16.0,0.0,1,6.0,25.0,28.0,McLennan County,31.6293334960938,-97.102783203125
TX,589.0,727.0,TX,Bellmead,93.0,9214.0,97.0,0.0,7,6.0,117.0,45.0,McLennan County,31.5940551757812,-97.1088943481445
TX,117.0,160.0,TX,Cuero,39.0,6571.0,18.0,0.0,1,6.0,27.0,4.0,DeWitt County,29.093864440918,-97.2891540527344
TX,307.0,397.0,TX,Tomball,61.0,9089.0,26.0,1.0,0,7.0,43.0,29.0,Harris County,30.0971565246582,-95.6160507202148
TX,354.0,477.0,TX,Jasper,101.0,8247.0,49.0,0.0,5,7.0,69.0,22.0,Jasper County,30.9202003479004,-93.99658203125
TX,440.0,763.0,TX,South Houston,171.0,15833.0,49.0,1.0,1,7.0,124.0,152.0,Harris County,29.6630115509033,-95.2354965209961
TX,1468.0,1872.0,TX,Allen,333.0,43554.0,36.0,0.0,4,7.0,59.0,71.0,Collin County,33.1031799316406,-96.6705551147461
TX,431.0,550.0,TX,Keller,99.0,27345.0,12.0,2.0,0,7.0,25.0,20.0,Tarrant County,32.9345664978027,-97.2516784667969
TX,256.0,335.0,TX,Commerce,68.0,7669.0,16.0,0.0,0,7.0,36.0,11.0,Hunt County,33.2470512390137,-95.8999633789062
TX,138.0,204.0,TX,Ingleside,52.0,9388.0,8.0,0.0,6,7.0,16.0,14.0,San Patricio County,27.8778038024902,-97.2116546630859
TX,488.0,602.0,TX,Stephenville,90.0,14921.0,26.0,0.0,2,7.0,35.0,24.0,Erath County,32.2206993103027,-98.202262878418
TX,608.0,896.0,TX,Gainesville,235.0,15538.0,102.0,2.0,3,7.0,130.0,53.0,Cooke County,33.6259384155273,-97.1333465576172
TX,415.0,590.0,TX,Deer Park,134.0,28520.0,57.0,0.0,5,8.0,71.0,41.0,Harris County,29.705228805542,-95.1238174438477
TX,823.0,1057.0,TX,Huntsville,176.0,35078.0,93.0,2.0,0,8.0,142.0,58.0,Walker County,30.7235221862793,-95.55078125
TX,616.0,784.0,TX,Flower Mound,135.0,50702.0,24.0,2.0,1,8.0,38.0,33.0,Denton County,33.0145606994629,-97.0969619750977
TX,1310.0,1657.0,TX,Alice,292.0,19010.0,139.0,0.0,15,8.0,152.0,55.0,Jim Wells County,27.7522449493408,-98.0697250366211
TX,615.0,812.0,TX,Rockwall,142.0,17976.0,46.0,0.0,0,8.0,64.0,55.0,Rockwall County,32.9312324523926,-96.4597091674805
TX,1178.0,1526.0,TX,Grapevine,203.0,42059.0,54.0,0.0,3,8.0,92.0,145.0,Tarrant County,32.9342956542969,-97.0780715942383
TX,214.0,333.0,TX,Santa Fe,97.0,9548.0,17.0,0.0,2,8.0,26.0,22.0,Galveston County,29.3780155181885,-95.1057662963867
TX,270.0,457.0,TX,Gonzales,186.0,7202.0,86.0,0.0,5,8.0,105.0,1.0,Gonzales County,29.5016269683838,-97.4524841308594
TX,335.0,526.0,TX,Dickinson,145.0,17093.0,26.0,3.0,1,8.0,56.0,46.0,Galveston County,29.4607925415039,-95.0513153076172
TX,1027.0,1230.0,TX,Seguin,160.0,22011.0,39.0,0.0,1,8.0,59.0,43.0,Guadalupe County,29.5688400268555,-97.9647216796875
TX,365.0,491.0,TX,Friendswood,101.0,29037.0,29.0,0.0,2,8.0,42.0,25.0,Galveston County,29.5294017791748,-95.201042175293
TX,193.0,263.0,TX,Andrews,59.0,9652.0,20.0,0.0,2,8.0,31.0,11.0,Andrews County,32.3187141418457,-102.545715332031
TX,302.0,345.0,TX,Portland,32.0,14827.0,11.0,0.0,0,9.0,20.0,11.0,San Patricio County,27.8772411346436,-97.3238754272461
TX,470.0,600.0,TX,Georgetown,87.0,28339.0,32.0,0.0,1,9.0,50.0,43.0,Williamson County,30.6326942443848,-97.6772308349609
TX,364.0,515.0,TX,Clute,118.0,10424.0,39.0,0.0,3,9.0,56.0,33.0,Brazoria County,29.0246868133545,-95.3988342285156
TX,186.0,261.0,TX,Hillsboro,57.0,8232.0,14.0,0.0,0,9.0,33.0,18.0,Hill County,32.010986328125,-97.1300048828125
TX,244.0,405.0,TX,Freeport,135.0,12708.0,28.0,1.0,0,9.0,47.0,26.0,Brazoria County,28.954137802124,-95.3596572875977
TX,710.0,1110.0,TX,Missouri City,282.0,52913.0,80.0,1.0,29,9.0,145.0,118.0,Fort Bend County,29.6185626983643,-95.5377197265625
TX,1192.0,1560.0,TX,Humble,144.0,14579.0,35.0,3.0,4,10.0,106.0,224.0,Harris County,29.9988288879395,-95.2621536254883
TX,220.0,287.0,TX,Pleasanton,57.0,8266.0,24.0,0.0,2,10.0,36.0,10.0,Atascosa County,28.9671897888184,-98.4786224365234
TX,653.0,889.0,TX,Mineral Wells,194.0,16946.0,36.0,1.0,2,10.0,55.0,42.0,Palo Pinto County,32.8084564208984,-98.1128234863281
TX,210.0,290.0,TX,Gun Barrel City,72.0,5145.0,31.0,1.0,0,10.0,44.0,8.0,Henderson County,32.3345832824707,-96.1513595581055
TX,962.0,1182.0,TX,Burleson,145.0,20976.0,36.0,0.0,5,10.0,57.0,75.0,Johnson County,32.5420761108398,-97.3208465576172
TX,838.0,1635.0,TX,Lancaster,570.0,25894.0,145.0,3.0,1,10.0,175.0,227.0,Dallas County,32.5920753479004,-96.756103515625
TX,222.0,299.0,TX,Elgin,63.0,5700.0,12.0,0.0,0,10.0,25.0,14.0,Bastrop County,30.3496475219727,-97.3702774047852
TX,224.0,317.0,TX,Port Lavaca,67.0,12035.0,19.0,0.0,1,10.0,31.0,26.0,Calhoun County,28.6149940490723,-96.626091003418
TX,1172.0,1558.0,TX,San Benito,331.0,23444.0,51.0,1.0,8,10.0,76.0,55.0,Cameron County,26.1325721740723,-97.6310958862305
TX,3743.0,5374.0,TX,Mesquite,926.0,124523.0,310.0,5.0,46,10.0,496.0,705.0,Dallas County,32.7667999267578,-96.5991592407227
TX,2121.0,3118.0,TX,Richardson,685.0,91802.0,122.0,3.0,12,11.0,234.0,312.0,Dallas County,32.9481811523438,-96.7297134399414
TX,130.0,232.0,TX,Hitchcock,68.0,6386.0,16.0,0.0,1,11.0,29.0,34.0,Galveston County,29.348295211792,-95.0160369873047
TX,1672.0,2152.0,TX,New Braunfels,401.0,36494.0,94.0,0.0,3,11.0,132.0,79.0,Comal County,29.7030048370361,-98.1244583129883
TX,663.0,871.0,TX,Henderson,161.0,11273.0,100.0,0.0,3,11.0,125.0,47.0,Rusk County,32.1532211303711,-94.7993850708008
TX,2379.0,3184.0,TX,Frisco,733.0,33714.0,72.0,1.0,8,11.0,98.0,72.0,Collin County,33.1506767272949,-96.8236083984375
TX,713.0,915.0,TX,Kilgore,153.0,11301.0,22.0,0.0,2,11.0,41.0,49.0,Gregg County,32.3862609863281,-94.8757705688477
TX,279.0,437.0,TX,Forest Hill,120.0,12949.0,44.0,0.0,0,11.0,95.0,38.0,Tarrant County,32.6720733642578,-97.2691802978516
TX,1014.0,2075.0,TX,Port Arthur,814.0,57755.0,240.0,2.0,42,12.0,394.0,247.0,Jefferson County,29.8988246917725,-93.9287796020508
TX,2624.0,3654.0,TX,Odessa,774.0,90943.0,512.0,2.0,33,12.0,614.0,256.0,Ector County,31.8456859588623,-102.367637634277
TX,437.0,657.0,TX,Jacksonville,188.0,13868.0,58.0,1.0,1,12.0,85.0,32.0,Cherokee County,31.9637756347656,-95.2705078125
TX,1208.0,1611.0,TX,Sherman,349.0,35082.0,116.0,0.0,0,12.0,153.0,54.0,Grayson County,33.6356658935547,-96.6088790893555
TX,521.0,659.0,TX,South Padre Island,105.0,2422.0,63.0,0.0,0,12.0,80.0,33.0,Cameron County,26.1037654876709,-97.1673889160156
TX,629.0,789.0,TX,Weatherford,111.0,19000.0,39.0,0.0,0,12.0,58.0,49.0,Parker County,32.7593002319336,-97.7972564697266
TX,259.0,327.0,TX,Port Isabel,58.0,4865.0,23.0,0.0,0,12.0,36.0,10.0,Cameron County,26.0734157562256,-97.2085800170898
TX,914.0,1451.0,TX,Duncanville,366.0,36081.0,37.0,1.0,0,12.0,110.0,171.0,Dallas County,32.6518020629883,-96.9083404541016
TX,866.0,1270.0,TX,Corsicana,310.0,24485.0,31.0,1.0,6,13.0,62.0,94.0,Navarro County,32.0954322814941,-96.4688720703125
TX,243.0,338.0,TX,Livingston,74.0,5433.0,22.0,0.0,4,13.0,43.0,21.0,Polk County,30.7110271453857,-94.932991027832
TX,2969.0,4059.0,TX,Edinburg,681.0,48465.0,200.0,1.0,10,13.0,263.0,409.0,Hidalgo County,26.3017387390137,-98.1633529663086
TX,579.0,783.0,TX,Raymondville,187.0,9733.0,152.0,0.0,0,13.0,170.0,17.0,Willacy County,26.4814548492432,-97.7830581665039
TX,1614.0,2552.0,TX,Texas City,765.0,41521.0,89.0,2.0,5,13.0,195.0,173.0,Galveston County,29.3838443756104,-94.9026947021484
TX,594.0,896.0,TX,Mansfield,249.0,28031.0,55.0,2.0,2,13.0,91.0,53.0,Tarrant County,32.5631980895996,-97.1416778564453
TX,639.0,878.0,TX,Borger,178.0,14302.0,56.0,0.0,12,14.0,79.0,61.0,Hutchinson County,35.6678237915039,-101.397384643555
TX,559.0,733.0,TX,Kerrville,144.0,20425.0,22.0,0.0,7,14.0,44.0,30.0,Kerr County,30.0474319458008,-99.1403198242188
TX,491.0,686.0,TX,Nederland,160.0,17422.0,30.0,0.0,1,14.0,66.0,35.0,Jefferson County,29.9743843078613,-93.9923934936523
TX,483.0,640.0,TX,Pflugerville,136.0,16335.0,19.0,0.0,4,14.0,42.0,21.0,Travis County,30.4393730163574,-97.620002746582
TX,742.0,1014.0,TX,Waxahachie,219.0,21426.0,82.0,0.0,5,14.0,104.0,53.0,Ellis County,32.386531829834,-96.8483352661133
TX,1005.0,1309.0,TX,Plainview,256.0,22336.0,78.0,0.0,6,14.0,105.0,48.0,Hale County,34.1847915649414,-101.706840515137
TX,247.0,345.0,TX,Hondo,88.0,7897.0,34.0,0.0,8,14.0,53.0,10.0,Medina County,29.3474540710449,-99.1414260864258
TX,435.0,572.0,TX,Cleveland,95.0,7605.0,32.0,1.0,2,15.0,56.0,42.0,Liberty County,30.3413200378418,-95.0854949951172
TX,390.0,570.0,TX,Angleton,144.0,18130.0,71.0,0.0,1,15.0,100.0,36.0,Brazoria County,29.1694145202637,-95.4318923950195
TX,277.0,432.0,TX,Levelland,141.0,12866.0,43.0,0.0,1,16.0,64.0,14.0,Hockley County,33.5873146057129,-102.377960205078
TX,704.0,1092.0,TX,Marshall,322.0,23935.0,101.0,4.0,6,16.0,141.0,66.0,Harrison County,32.5448684692383,-94.3674163818359
TX,803.0,1024.0,TX,Webster,103.0,9083.0,23.0,1.0,3,16.0,65.0,118.0,Harris County,29.5377311706543,-95.1182632446289
TX,795.0,1058.0,TX,Copperas Cove,238.0,29592.0,68.0,1.0,5,16.0,109.0,25.0,Coryell County,31.1240634918213,-97.903076171875
TX,298.0,585.0,TX,La Marque,225.0,13682.0,46.0,1.0,1,16.0,92.0,62.0,Galveston County,29.3685646057129,-94.9713134765625
TX,718.0,970.0,TX,Nacogdoches,202.0,29914.0,48.0,2.0,0,17.0,92.0,50.0,Nacogdoches County,31.6035099029541,-94.6554870605469
TX,826.0,1252.0,TX,Orange,332.0,18643.0,130.0,0.0,14,17.0,195.0,94.0,Orange County,30.0929889678955,-93.7365570068359
TX,570.0,829.0,TX,Rosenberg,188.0,24043.0,51.0,0.0,5,17.0,78.0,71.0,Fort Bend County,29.5571784973145,-95.8085556030273
TX,751.0,1159.0,TX,Big Spring,348.0,25233.0,105.0,1.0,6,17.0,138.0,60.0,Howard County,32.2504005432129,-101.478736877441
TX,637.0,968.0,TX,Terrell,241.0,13606.0,128.0,2.0,18,17.0,187.0,90.0,Kaufman County,32.7359580993652,-96.275260925293
TX,334.0,522.0,TX,Athens,158.0,11297.0,32.0,0.0,3,17.0,63.0,30.0,Henderson County,32.2048721313477,-95.8555221557617
TX,1542.0,2320.0,TX,Haltom City,507.0,39018.0,126.0,2.0,14,18.0,190.0,271.0,Tarrant County,32.7995681762695,-97.2691802978516
TX,1815.0,2239.0,TX,Hurst,293.0,36273.0,138.0,1.0,5,18.0,203.0,131.0,Tarrant County,32.8234596252441,-97.1705703735352
TX,608.0,798.0,TX,Cedar Park,154.0,26049.0,68.0,1.0,6,18.0,94.0,36.0,Williamson County,30.5051975250244,-97.8202896118164
TX,1249.0,1678.0,TX,League City,342.0,45444.0,41.0,0.0,6,18.0,83.0,87.0,Galveston County,29.5074501037598,-95.0949249267578
TX,164.0,204.0,TX,Lampasas,28.0,6786.0,13.0,0.0,5,18.0,31.0,12.0,Lampasas County,31.0637836456299,-98.1816940307617
TX,800.0,1123.0,TX,Brownwood,284.0,18813.0,96.0,0.0,1,18.0,128.0,39.0,Brown County,31.709321975708,-98.9911575317383
TX,1677.0,2362.0,TX,North Richland Hill,499.0,55635.0,128.0,0.0,2,19.0,188.0,186.0,Tarrant County,32.834300994873,-97.2288970947266
TX,1180.0,1615.0,TX,Bedford,314.0,47152.0,197.0,0.0,5,19.0,254.0,121.0,Tarrant County,32.8440208435059,-97.14306640625
TX,506.0,634.0,TX,Rockport,108.0,7385.0,9.0,0.0,0,20.0,31.0,20.0,Aransas County,28.0205764770508,-97.0544357299805
TX,1780.0,2414.0,TX,Conroe,450.0,36811.0,155.0,5.0,8,20.0,238.0,184.0,Montgomery County,30.3118801116943,-95.4560546875
TX,889.0,1221.0,TX,Balch Springs,194.0,19375.0,65.0,1.0,3,22.0,123.0,138.0,Dallas County,32.7287406921387,-96.6227722167969
TX,3255.0,4570.0,TX,Harlingen,1043.0,57564.0,261.0,3.0,21,22.0,353.0,272.0,Cameron County,26.1906337738037,-97.6960983276367
TX,1642.0,1968.0,TX,Round Rock,277.0,61136.0,50.0,0.0,6,23.0,104.0,49.0,Williamson County,30.5082607269287,-97.6788940429688
TX,975.0,1359.0,TX,San Marcos,262.0,34733.0,107.0,1.0,7,25.0,166.0,122.0,Hays County,29.883279800415,-97.9413909912109
TX,1033.0,1553.0,TX,Pearland,402.0,37640.0,66.0,0.0,7,25.0,115.0,118.0,Brazoria County,29.5635623931885,-95.2860412597656
TX,2525.0,3339.0,TX,Pharr,597.0,46660.0,98.0,4.0,5,26.0,190.0,217.0,Hidalgo County,26.1947917938232,-98.1836166381836
TX,4574.0,6285.0,TX,Wichita Falls,1291.0,104197.0,286.0,9.0,64,27.0,491.0,420.0,Wichita County,33.9137077331543,-98.4933853149414
TX,5820.0,6926.0,TX,McAllen,637.0,106414.0,228.0,4.0,23,28.0,383.0,469.0,Hidalgo County,26.2034111022949,-98.2300109863281
TX,1803.0,2376.0,TX,Texarkana,451.0,34782.0,354.0,3.0,18,30.0,462.0,122.0,Bowie County,33.4251251220703,-94.0476913452148
TX,597.0,890.0,TX,Pampa,244.0,17887.0,126.0,0.0,8,31.0,165.0,49.0,Gray County,35.5361557006836,-100.959869384766
TX,2570.0,3760.0,TX,Bryan,1004.0,65660.0,452.0,6.0,35,31.0,589.0,186.0,Brazos County,30.6743679046631,-96.3699645996094
TX,2112.0,2973.0,TX,Victoria,688.0,60603.0,211.0,5.0,1,32.0,337.0,173.0,Victoria County,28.8052673339844,-97.0035934448242
TX,975.0,1403.0,TX,Lufkin,332.0,32709.0,149.0,1.0,2,33.0,221.0,96.0,Angelina County,31.3382453918457,-94.7290954589844
TX,1003.0,1329.0,TX,Cleburne,259.0,26005.0,98.0,1.0,4,34.0,158.0,67.0,Johnson County,32.3476448059082,-97.3866882324219
TX,2150.0,3045.0,TX,Lewisville,508.0,77737.0,105.0,2.0,15,37.0,214.0,387.0,Denton County,33.0462303161621,-96.9941711425781
TX,2192.0,2860.0,TX,College Station,549.0,67890.0,138.0,0.0,0,39.0,210.0,119.0,Brazos County,30.6279792785645,-96.3344039916992
TX,1616.0,2217.0,TX,McKinney,490.0,54369.0,184.0,2.0,23,41.0,264.0,111.0,Collin County,33.1976165771484,-96.6152648925781
TX,3280.0,4313.0,TX,Tyler,842.0,83650.0,407.0,5.0,10,41.0,563.0,191.0,Smith County,32.3512573242188,-95.3010559082031
TX,6642.0,8618.0,TX,Plano,1394.0,222030.0,543.0,4.0,69,42.0,743.0,582.0,Collin County,33.0198402404785,-96.6988830566406
TX,6483.0,8385.0,TX,Brownsville,1377.0,139722.0,648.0,5.0,9,46.0,867.0,525.0,Cameron County,25.9017486572266,-97.4974822998047
TX,2115.0,3233.0,TX,Baytown,789.0,66430.0,164.0,3.0,23,46.0,350.0,329.0,Harris County,29.7355060577393,-94.977424621582
TX,6728.0,9644.0,TX,Irving,1674.0,191615.0,535.0,3.0,36,48.0,850.0,1242.0,Dallas County,32.8140182495117,-96.9488906860352
TX,3395.0,4848.0,TX,Pasadena,1017.0,141674.0,393.0,7.0,33,49.0,620.0,436.0,Harris County,29.6910591125488,-95.2091064453125
TX,5278.0,7884.0,TX,Garland,1889.0,215768.0,300.0,3.0,41,50.0,576.0,717.0,Dallas County,32.9126243591309,-96.6388854980469
TX,3359.0,4557.0,TX,San Angelo,974.0,88439.0,278.0,3.0,20,53.0,396.0,224.0,Tom Green County,31.4637718200684,-100.437042236328
TX,3318.0,4902.0,TX,Longview,1103.0,73344.0,536.0,10.0,49,56.0,719.0,481.0,Gregg County,32.5007095336914,-94.7404937744141
TX,2619.0,3712.0,TX,Midland,861.0,94996.0,234.0,5.0,12,58.0,373.0,232.0,Midland County,31.9973430633545,-102.077911376953
TX,2295.0,3168.0,TX,Denton,664.0,80537.0,204.0,0.0,19,60.0,329.0,209.0,Denton County,33.2148399353027,-97.1330718994141
TX,3460.0,5045.0,TX,Abilene,1282.0,115930.0,375.0,5.0,33,67.0,554.0,303.0,Taylor County,32.4487342834473,-99.7331466674805
TX,4844.0,7479.0,TX,Grand Prairie,1591.0,127427.0,262.0,3.0,25,69.0,490.0,1044.0,Dallas County,32.7459602355957,-96.9977798461914
TX,4869.0,7512.0,TX,Waco,2188.0,113726.0,614.0,9.0,28,72.0,952.0,455.0,McLennan County,31.5493354797363,-97.1466751098633
TX,4525.0,6962.0,TX,Beaumont,1887.0,113866.0,726.0,10.0,33,75.0,1155.0,550.0,Jefferson County,30.0860424041748,-94.1018524169922
TX,3108.0,5471.0,TX,Killeen,2121.0,86911.0,452.0,8.0,44,81.0,787.0,242.0,Bell County,31.117115020752,-97.7277984619141
TX,9661.0,12511.0,TX,Laredo,1643.0,176576.0,814.0,22.0,115,96.0,1198.0,1207.0,Webb County,27.506404876709,-99.5075378417969
TX,8610.0,12373.0,TX,Lubbock,3070.0,199564.0,1691.0,13.0,52,98.0,2169.0,693.0,Lubbock County,33.5778656005859,-101.855163574219
TX,7617.0,11080.0,TX,Amarillo,2412.0,173627.0,1119.0,5.0,93,98.0,1623.0,1051.0,Potter County,35.2219924926758,-101.831298828125
TX,2278.0,3239.0,TX,Galveston,657.0,57247.0,303.0,4.0,7,120.0,593.0,304.0,Galveston County,29.3013458251953,-94.7976989746094
TX,15261.0,19138.0,TX,Corpus Christi,3005.0,277454.0,1414.0,21.0,128,167.0,2070.0,872.0,Nueces County,27.8005847930908,-97.3963775634766
TX,13905.0,19666.0,TX,Arlington,4042.0,332969.0,1632.0,14.0,42,192.0,2728.0,1719.0,Tarrant County,32.7356910705566,-97.1080703735352
TX,24128.0,36473.0,TX,Fort Worth,8998.0,534694.0,2496.0,49.0,233,247.0,4209.0,3347.0,Tarrant County,32.7254104614258,-97.3208541870117
TX,31562.0,41573.0,TX,Austin,7467.0,656562.0,1961.0,20.0,88,319.0,3658.0,2544.0,Travis County,30.267147064209,-97.7430648803711
TX,57377.0,78621.0,TX,San Antonio,14629.0,1144646.0,5023.0,119.0,484,514.0,7977.0,6615.0,Bexar County,29.4241218566895,-98.4936294555664
TX,50009.0,85592.0,TX,Dallas,21653.0,1188580.0,7292.0,187.0,"1,058",665.0,15058.0,13930.0,Dallas County,32.7834587097168,-96.8002853393555
TX,73091.0,121053.0,TX,Houston,26869.0,1953631.0,11648.0,377.0,"1,121",854.0,24250.0,21093.0,Harris County,29.7632884979248,-95.3632736206055
